ciudad,pais,lat,lon
Fuente-Álamo,España,38.69322,-1.431773
Feucht,Germany,49.3758,11.2131
Sarzana,Italy,44.1136,9.96
Brandýs nad Labem-Stará Boleslav,Czechia,50.1872,14.6633
Vilanova d'Escornalbou,España,41.11419,0.9367994
Valderrábano,España,42.60603,-4.654995
Gerena,España,37.52553,-6.157654
Küttigen,Switzerland,47.4164,8.05
Saint-Genis-Pouilly,France,46.2433,6.0214
Périgneux,Francia,45.4419832,4.1555711
Yuncler,España,40.04062,-3.903411
Cabezarados,España,38.84591,-4.297102
Mantes-la-Jolie,France,48.9908,1.7172
Busto Garolfo,Italy,45.5478,8.8867
Saint-Priest-la-Roche,Francia,45.9135756,4.0932561
Digoin,France,46.4819,3.9806
Quintanar del Rey,España,39.34257,-1.929375
Écouflant,Francia,47.5315221,-0.5301394
Ansó,España,42.75754,-0.8281171
Padern,Francia,42.8673018,2.6580183
Ségny,Francia,46.2964559,6.0738412
Orihuela del Tremedal,España,40.55058,-1.649716
Orrios,España,40.58663,-0.9876969
Yviers,Francia,45.2741349,-0.0062444
Lanvollon,Francia,48.6319377,-2.9862361
Villaselán,España,42.56092,-5.047582
Bizanos,Francia,43.2887961,-0.3531403
Cléguérec,Francia,48.1244286,-3.0700203
Val do Dubra,España,43.0225,-8.638333
Oppède,Francia,43.8451144,5.168989
Finale Ligure,Italy,44.1691,8.3435
Le Quesnoy,Francia,50.2473417,3.6364504
La Chavanne,Francia,45.4949929,6.072883
Maruéjols-lès-Gardon,Francia,44.0058,4.13274
Barsinghausen,Germany,52.3031,9.4606
Oer-Erkenschwick,Germany,51.6422,7.2508
Domont,France,49.0275,2.3267
Roques,Francia,43.5109039,1.3755068
la Vansa i Fórnols,España,42.243211349999996,1.4719326197608285
Murol,Francia,45.5738254,2.9426341
Oímbra,España,41.88543,-7.47204
Spoleto,Italy,42.7333,12.7333
Tormón,España,40.20275,-1.353761
Saint-Maixent-l'École,Francia,46.4096855,-0.2019344
gmina Szamotuly,Polonia,52.592598699999996,16.581035796970085
La Verdière,Francia,43.6379633,5.9348456
Privezac,Francia,44.4125,2.18738
Vila Velha de Ródão,Portugal,39.6545418,-7.6723114
Vals-près-le-Puy,Francia,45.0300955,3.8757116
Champagné,Francia,48.0168,0.33179
Folgoso de la Ribera,España,42.64359,-6.319312
Quintanilla de Arriba,España,41.62019,-4.215496
Estollo,España,42.32934,-2.850387
Aiguamúrcia,España,41.33018,1.359454
Exireuil,Francia,46.4330374,-0.1918386
Campbon,Francia,47.4128164,-1.9693613
Schweindorf,Alemania,48.7842929,10.4140154
Gavirate,Italy,45.85,8.7167
Bellaffaire,Francia,44.4194056,6.1767609
Dillingen a.d.Donau,Alemania,48.5812547,10.4951425
Marin,Estados Unidos de América,38.0409144,-122.6199638
Meyreuil,France,43.4861,5.4956
Navares de Enmedio,España,41.38144,-3.722878
Quintana Redonda,España,41.64019,-2.615314
La Ferrière-aux-Étangs,Francia,48.6624738,-0.5183172
Fos-sur-Mer,France,43.4544,4.9436
Alhaurín de la Torre,España,36.66836,-4.552967
Villa del Prado,España,40.27678,-4.305642
Heerlen,Netherlands,50.8833,5.9833
Zoeterwoude,Netherlands,52.1136,4.5058
Montijo,España,38.90995,-6.617333
Fontpédrouse,Francia,42.5111567,2.1775922
Rotherwick,Reino Unido,51.29891265,-0.9724949233030722
Francs,Francia,44.9466032,-0.0057663
Fégréac,Francia,47.5848288,-2.0444369
Campo Maior,Brazil,-4.8278,-42.1689
Illkirch-Graffenstaden,France,48.53,7.72
San Cristovo de Cea,España,42.4728,-7.985322
Villars,France,45.4689,4.3544
Cabezuela,España,41.23514,-3.933327
Cap-d'Ail,Francia,43.7230453,7.3969373
Bessé-sur-Braye,Francia,47.8346552,0.7525544
Crest,France,44.7283,5.0222
Thorigné,Francia,46.28241585,-0.25521076094997297
Clairac,Francia,44.3601017,0.375571
Claye-Souilly,France,48.945,2.6867
Vilaboa,España,42.34724,-8.646326
Gières,France,45.1819,5.7919
Pompey,United States,42.9229,-75.9803
Parma,Italy,44.8015,10.328
Loubajac,Francia,43.134443,-0.080273
Colmar,France,48.0817,7.3556
Villefranche-d'Albigeois,Francia,43.8974,2.32982
Líne,Chequia,49.6947189,13.2569297
Darmstadt,Germany,49.8667,8.65
Canéjan,France,44.7631,-0.6547
Bergondo,España,43.31667,-8.233334
Montbron,Francia,45.6664226,0.4994516
Chénérailles,Francia,46.1119429,2.1763417
Garennes-sur-Eure,Francia,48.9109977,1.4368217
Fuencaliente de la Palma,España,28.4885,-17.84942
Follonica,Italy,42.9189,10.7614
Fontenilles,France,43.5531,1.1911
Thomery,Francia,48.4090286,2.784838
Distré,Francia,47.222937,-0.1110147
Auzat,Francia,42.7655046,1.4794271
Neydens,Francia,46.1208585,6.1039786
Carbay,Francia,47.733333,-1.216667
Kusterdingen,Germany,48.5222,9.1208
Couhé,Francia,46.29340445,0.17333690294944107
Villemagne,Francia,43.359,2.11204
Priego,España,40.44872,-2.314606
Lahitte,Francia,43.6593778,0.6808412
Viviers-lès-Montagnes,Francia,43.5546,2.17475
Belmontejo,España,39.82042,-2.344961
Sant Quirze de Besora,España,42.10094,2.216611
Cea,España,42.46276,-5.012908
l'Esquirol,España,42.0287654,2.3661993463765816
Pliego,España,37.99001,-1.506185
Agón,España,41.85692,-1.452092
Le Dorat,Francia,46.2144367,1.0822603
Anchuras,España,39.48024,-4.835894
Chindrieux,Francia,45.8193027,5.8480382
Villeneuve-sur-Vère,Francia,44.0022588,2.028823
Franqueville-Saint-Pierre,Francia,49.4027,1.1825
Holzgerlingen,Germany,48.6392,9.0108
Gátova,España,39.77004,-0.5198705
Mamblas,España,41.01953,-5.011209
Beaumettes,Francia,43.8584906,5.2022934
Kortrijk,Belgium,50.8333,3.2667
Asiago,Italy,45.8667,11.5167
Sant Esteve de la Sarga,España,42.08051,0.7636091
Saint-Jean-de-Cornies,Francia,43.7444,4.00172
Acehúche,España,39.80257,-6.633866
Saint-Pierre-de-Chandieu,Francia,45.6446435,5.0100345
Sainte-Colome,Francia,43.1024968,-0.402989
Barneville-Carteret,Francia,49.3779892,-1.7870469
Colombes,France,48.9236,2.2522
Saint-Quentin-Fallavier,France,45.6322,5.1106
Seegräben,Suiza,47.3421419,8.7709578
Pessac-sur-Dordogne,Francia,44.8190454,0.0811708
Valdenebro,España,41.57103,-2.964019
Hueva,España,40.46245,-2.960818
Le Plessis-Grammoire,Francia,47.5004506,-0.4308085
Berdejo,España,41.56099,-1.944459
Moulismes,Francia,46.3301529,0.8118828
Habay,Bélgica,49.7356402,5.592928298869271
Chaville,France,48.8086,2.1886
Taden,Francia,48.4751525,-2.0165093
Sainte-Euphémie,Francia,45.9726012,4.7958364
Schilde,Belgium,51.2333,4.5667
Oliete,España,40.99805,-0.6744237
Escot,Reino Unido,56.7861112,-4.1140518
Les Chères,Francia,45.8901601,4.7432881
Piacenza,Italy,45.05,9.7
Unna,Germany,51.5347,7.6889
Althengstett,Germany,48.7233,8.7939
Huéneja,España,37.17693,-2.948596
Le Val-d'Ajol,Francia,47.9256946,6.4836408
Vícar,España,36.83145,-2.642515
Tomblaine,France,48.6856,6.2117
Cerdido,España,43.62384,-7.994961
L'Isle-d'Abeau,Francia,45.6230017,5.2298398
Castrillo de Cabrera,España,42.34034,-6.544417
Bahabón de Esgueva,España,41.86199,-3.729234
Martiago,España,40.45242,-6.490011
Le Pailly,Francia,47.7914501,5.414816
Borsbeek,Belgium,51.1928,4.4889
Le Brusquet,Francia,44.1610416,6.3075829
Saint-Bauzille-de-Montmel,Francia,43.7707441,3.9570777
Saint-Julien-du-Verdon,Francia,43.9141856,6.54233
Marchagaz,España,40.26732,-6.275044
Gondecourt,Francia,50.5432418,2.9830581
Villaverde de Medina,España,41.30785,-5.025022
Villalmanzo,España,42.04841,-3.741645
Castellcir,España,41.76043,2.148678
Maastricht,Netherlands,50.8667,5.6833
Bárcena de Campos,España,42.4837,-4.498671
Peñaranda de Bracamonte,España,40.90394,-5.202896
Puy-l'Évêque,Francia,44.516,1.13941
Nazelles-Négron,Francia,47.4319865,0.953293
Daillens,Suiza,46.6202897,6.5487115
Juncosa,España,41.37148,0.7753397
Guidonia Montecelio,Italia,41.9842734,12.6953191
Taverny,France,49.0264,2.2275
Ledanca,España,40.86851,-2.843731
Obanos,España,42.67956,-1.785792
Haaren,Netherlands,51.6017,5.2228
Civrac-sur-Dordogne,Francia,44.8304142,-0.0815023
Busloup,Francia,47.8938209,1.1310847
Middelburg,South Africa,-25.7684,29.4783
Villiers-le-Bel,France,49.0094,2.3911
Sant Ferriol,España,42.20639,2.661678
Brides-les-Bains,Francia,45.4525213,6.5667816
Marssac-sur-Tarn,Francia,43.9176823,2.0293467
Bourg-des-Comptes,Francia,47.9298273,-1.7388742
Montchanin,Francia,46.747427,4.4699684
Sost,Francia,42.9279671,0.5576773
Larraga,España,42.55874,-1.848682
Trausse,Francia,43.3128202,2.5621842
Azagra,España,42.30789,-1.894474
Wald-Michelbach,Germany,49.5724,8.8243
Cavalaire-sur-Mer,France,43.1711,6.5292
Aldea de San Miguel,España,41.45976,-4.614833
Barbadillo del Mercado,España,42.03931,-3.358344
Higuera de las Dueñas,España,40.23775,-4.601235
Donzdorf,Germany,48.6833,9.8167
Saint-Pierre-d'Eyraud,Francia,44.8491667,0.3194444
Azat-le-Ris,Francia,46.3192888,1.0604471
Báscones de Ojeda,España,42.67077,-4.527061
Saint-Jean,France,43.6653,1.505
Marcilloles,Francia,45.3399,5.18347
Grugliasco,Italy,45.0689,7.5786
Igorre,España,43.16583,-2.776111
Gizycko,Polonia,54.0361354,21.7661326027255
Neuwied,Germany,50.4286,7.4614
Glanon,Francia,47.03994,5.10613
Venette,Francia,49.4162216,2.8007412
Carenas,España,41.27814,-1.797706
Monestier-de-Clermont,Francia,44.9183482,5.6358993
Cherveux,Francia,46.4160953,-0.3568208
Paulx,Francia,46.9626633,-1.7541557
Le Neubourg,Francia,49.1496553,0.9044712
Laurac-en-Vivarais,Francia,44.5091242,4.2908403
Rágama,España,40.99702,-5.127748
Chuzelles,Francia,45.5858,4.87514
Saint-Geniès,Francia,44.9940125,1.2539095
Lancy,Suiza,46.1839156,6.1224047
Courpalay,Francia,48.6496903,2.9612809
Aznalcázar,España,37.30518,-6.248415
Tejado,España,41.58828,-2.267788
Urdiales del Páramo,España,42.37043,-5.773118
Bayerbach b. Ergoldsbach,Alemania,48.711504149999996,12.301566068769091
Culoz,Francia,45.8476517,5.7809063
Alange,España,38.78708,-6.243493
Le Haillan,France,44.8717,-0.6769
Bellmunt del Priorat,España,41.16308,0.7666381
Lempdes-sur-Allagnon,Francia,45.3853961,3.2691547
Tournefeuille,France,43.5853,1.3442
Hemau,Germany,49.0519,11.7828
Baralla,España,42.89286,-7.253127
L'Haÿ-les-Roses,Francia,48.7790514,2.3373021
Kaposvár,Hungary,46.3667,17.7833
Bonete,España,38.8693,-1.348517
Danjoutin,Francia,47.618521,6.8628326
Castilforte,España,40.55718,-2.432781
Plougoumelen,Francia,47.6525123,-2.9175888
Navalagamella,España,40.46916,-4.12338
Marsicovetere,Italia,40.3766014,15.8244926
La Mothe-Achard,Francia,46.6180017,-1.6591947
Chenonceaux,Francia,47.332025,1.0704332
Ameyugo,España,42.65606,-3.061546
Bellvei,España,41.23992,1.577277
Perales de Tajuña,España,40.23453,-3.352198
El Guijo,España,38.495977,-4.7831015
Noyers-Saint-Martin,Francia,49.5520222,2.262525
Banyuls-dels-Aspres,Francia,42.566168,2.8663083
Couflens,Francia,42.7872356,1.1863998
Irissarry,Francia,43.2577981,-1.2299287
Catadau,España,39.27526,-0.5696288
Mende,France,44.5183,3.5006
Yartsevsky district,Rusia,55.222218,32.80253764566007
Chýne,Chequia,50.0606462,14.2272998
Aras,España,42.5625,-2.35474
Geldo,España,39.83671,-0.4669072
Bonne,Alemania,50.735851,7.10066
Saint-Georges-de-Luzençon,Francia,44.063084,2.9855424
La Bassée,France,50.5336,2.8072
Caux-et-Sauzens,Francia,43.22687005,2.258773249997442
Alzey,Germany,49.7517,8.1161
Portimão,Portugal,37.1333,-8.5333
Nagold,Germany,48.5519,8.7256
Lescar,France,43.325,-0.4161
Velilla de Jiloca,España,41.27439,-1.604339
Guadahortuna,España,37.55655,-3.400713
Bussoleno,Italy,45.1411,7.1475
Varennes-sur-Allier,Francia,46.3127469,3.4033756
Aubenas,France,44.6197,4.3903
Saint-Mamert-du-Gard,Francia,43.8881199,4.188639
Eboli,Italy,40.6169,15.0564
Huelves,España,40.04359,-2.883523
Plobannalec-Lesconil,Francia,47.820883949999995,-4.230578491285426
Guadarrama,España,40.67348,-4.090732
Bad Bergzabern,Germany,49.1021,7.993
Caillavet,Francia,43.712321,0.3321888
Peñamellera Alta,España,43.32,-4.71
Santa María de Guía de Gran Canaria,España,28.13915,-15.63284
Duruelo de la Sierra,España,41.95428,-2.932089
Ricote,España,38.15238,-1.367112
Gottolengo,Italy,45.2928,10.2734
Pommard,Francia,47.0087919,4.7962295
Ercé-près-Liffré,Francia,48.2561002,-1.514468
Kaiserslautern,Germany,49.4447,7.7689
Effiat,Francia,46.0408,3.2564
Romont (FR),Suiza,46.698611400000004,6.923026148648532
Tombebœuf,Francia,44.5065535,0.4512701
Villadangos del Páramo,España,42.51751,-5.766411
Amigny-Rouy,Francia,49.6105591,3.3052683
Villasrubias,España,40.3381,-6.640275
Mazières-en-Gâtine,Francia,46.5327178,-0.322791
Bréval,Francia,48.9447453,1.5331842
La Garde,France,43.1256,6.0108
Fameck,France,49.2992,6.1097
Fehmarn,Alemania,54.4687375,11.134084837911693
Vertova,Italia,45.8102188,9.8535071
Villers-sous-Chalamont,Francia,46.9045867,6.0425
Merlevenez,Francia,47.7359916,-3.2351341
Sertã,Portugal,39.8008,-8.1003
Avinyonet del Penedès,España,41.3606,1.776485
Zerbst/Anhalt,Alemania,51.9640308,12.0857291
Moulins-lès-Metz,France,49.1064,6.1089
Roses,España,42.26297,3.174805
Changé,France,47.9878,0.2819
Bühl,Germany,48.6953,8.135
Secondigny,Francia,46.6097116,-0.4168094
Arrabalde,España,42.10757,-5.89513
Breuillet,France,48.5661,2.1714
Bessancourt,France,49.0378,2.2133
Calanda,España,40.94182,-0.2341148
Lumezzane,Italia,45.6482576,10.2645464
Lunel-Viel,Francia,43.677906,4.0902157
Charavines,Francia,45.4276,5.51563
Cléon-d'Andran,Francia,44.6111199,4.9358296
Castro Caldelas,España,42.37637,-7.411907
Montayral,Francia,44.4802227,0.9875538
Cúllar Vega,España,37.15327,-3.670436
Barbaste,Francia,44.1701233,0.2867228
Roman,Romania,46.93,26.93
Magden,Suiza,47.5283737,7.8116008
Lyon,France,45.76,4.84
Buc,France,48.7733,2.1253
Montitxelvo / Montichelvo,España,38.891134,-0.3396607
Aiguilhe,Francia,45.0506329,3.8842058
la Bisbal del Penedès,España,41.2778415,1.4905591
Pointis-de-Rivière,Francia,43.0870336,0.6171722
Arès,France,44.765,-1.1367
Jaux,Francia,49.3881042,2.7765151
Saint-Georges-de-Mons,Francia,45.9387966,2.8406572
Robleda,España,40.38509,-6.608461
As Pontes de García Rodríguez,España,43.4502183,-7.853109
Valcabado,España,41.54812,-5.7493
Orio al Serio,Italia,45.6762274,9.6929555
Bazus,Francia,43.7352484,1.5166874
Valdemanco del Esteras,España,38.94009,-4.829856
Cognin-les-Gorges,Francia,45.1708262,5.411004
Jodoigne,Belgium,50.7167,4.8667
Saint-Jean-de-Chevelu,Francia,45.6908,5.8186318
Pecq,Belgium,50.6833,3.3333
Béjar,España,40.38356,-5.766045
Lens,France,50.4322,2.8333
Vinuesa,España,41.91164,-2.762882
Le Mesnil-sur-Blangy,Francia,49.2608333,0.2611111
Leuville-sur-Orge,Francia,48.6155573,2.2674029
Prissac,Francia,46.5100348,1.3086049
Mancha Real,España,37.78617,-3.612393
Newington ,Estados Unidos de América,43.100482,-70.834351
Semoutiers-Montsaon,Francia,48.06069065,5.061692375237385
Villeneuve-de-Marc,Francia,45.4757685,5.1013942
Vila Real de Santo António,Portugal,37.2,-7.4167
Cuerva,España,39.66404,-4.211058
Fayence,France,43.6233,6.6939
Coudes,Francia,45.6147969,3.2083306
Saint-Laurent-Blangy,France,50.3025,2.8028
Bono,Ghana,7.6761791,-2.4735401
Notre-Dame-de-Sanilhac,Francia,45.13292945,0.7080364376276143
Palmanova,Italy,45.9,13.3167
Sant Llorenç de Morunys,España,42.13683,1.590986
Alba-la-Romaine,Francia,44.5544374,4.5978069
Laren,Netherlands,52.2544,5.2317
Rybnik,Poland,50.0833,18.5
San Roque de Riomiera,España,43.23583,-3.700278
Padova,Italy,45.4064,11.8778
Montrouge,France,48.8172,2.3219
Sant Joan de Mollet,España,42.04591,2.941206
Sant Feliu de Buixalleu,España,41.79071,2.585428
Chezal-Benoît,Francia,46.8272524,2.1125605
Finhaut,Suiza,46.082805,6.9765238
Rouillac,Francia,48.3093474,-2.3667022
Kirkel,Germany,49.2833,7.2333
Zarzuela,España,40.25455,-2.12783
Nisa,Portugal,39.5167,-7.65
Berre-l'Étang,Francia,43.4758249,5.1673492
Saint-Vincent-de-Paul,Francia,44.9549798,-0.4692956
Železná Ruda,Chequia,49.14256145,13.254655150393749
Orxeta,España,38.5636,-0.2619973
Steenvoorde,Francia,50.8101261,2.5816407
Bouzy-la-Forêt,Francia,47.851099,2.3777055
Chassal,Francia,46.35937505,5.7856655150235365
Cabrillas,España,40.74129,-6.180253
Les Pechs-du-Vers,Francia,44.58710645,1.5632628288077282
Aurich,Germany,53.4714,7.4836
Navalmoralejo,España,39.73903,-5.142811
Bugojno,Bosnia And Herzegovina,44.0572,17.4508
Malpartida de la Serena,España,38.67442,-5.640807
Lescun,Francia,42.9356819,-0.6349377
Courlon-sur-Yonne,Francia,48.3385316,3.1666834
Montaud,Francia,45.2631189,5.5612182
Saint-Gély-du-Fesc,France,43.6922,3.8061
Villamuelas,España,39.81754,-3.732577
Prullans,España,42.37906,1.739284
Arzens,Francia,43.1987845,2.2080897
gmina Steszew,Polonia,52.261409400000005,16.704906029684167
Nahuja,Francia,42.4248465,1.9946918
Luzón,España,41.02659,-2.277313
Arriate,España,36.79936,-5.140064
Marcheprime,Francia,44.6920229,-0.8534089
Royan,France,45.6231,-1.0431
Pajares de Adaja,España,40.92365,-4.64045
Cervera de Pisuerga,España,42.86576,-4.499135
Boretto,Italy,44.9,10.55
Šurany,Slovakia,48.0833,18.1833
Estables,Francia,44.681922799999995,3.513394808877004
La Chapelle-de-la-Tour,Francia,45.5850589,5.4651343
Montoussin,Francia,43.2762,1.01052
Chavagne,Francia,48.0539088,-1.7881749
Taupont,Francia,47.9571851,-2.4402995
La Chapelle-sur-Erdre,France,47.2989,-1.5528
Bazas,Francia,44.4320456,-0.2126009
Montederramo,España,42.27694,-7.502669
Commentry,France,46.2889,2.7417
Sant Josep de sa Talaia,España,38.92173,1.293443
Rantigny,Francia,49.3311881,2.440098
Avelin,Francia,50.5378519,3.0812217
Dehesa de Romanos,España,42.63984,-4.435236
San Martín y Mudrián,España,41.22304,-4.330223
San Miguel de Serrezuela,España,40.67038,-5.287457
Quintana del Puente,España,42.08389,-4.206628
Tanneron,Francia,43.5902231,6.8755091
Ménesplet,Francia,45.0169415,0.1051785
Sucé-sur-Erdre,France,47.3447,-1.5294
Montrottier,Francia,45.7907119,4.4663652
Saint-Étienne-en-Coglès,Francia,48.39227045,-1.3319808083766702
Sant Feliu de Guíxols,España,41.78058,3.030733
Valdecabras,España,40.1589917,-2.0357276
Santa María de la Vega,España,42.08535,-5.809614
Errezil,España,43.16467,-2.173594
Torreblacos,España,41.66937,-2.87743
Moralina,España,41.48946,-6.138382
Bischofsheim,Germany,49.989,8.355
Pont-du-Casse,Francia,44.2325,0.6819444
Schengen,Luxemburgo,49.4716,6.3659008
Castellaneta,Italy,40.6333,16.9333
Sant Jordi Desvalls,España,42.07058,2.954044
Le Temple-sur-Lot,Francia,44.3796482,0.5255504
Étampes,France,48.4343,2.1615
Martigny-le-Comte,Francia,46.5288287,4.3341404
Le Pin,Francia,49.211944,0.336389
Aosta,Italy,45.7372,7.3206
Pardines,España,42.31271,2.213113
Parentignat,Francia,45.5338032,3.2898765
Lugros,España,37.23069,-3.240909
Encinasola de los Comendadores,España,41.03008,-6.532548
Santurtzi,España,43.32871,-3.031772
Desenzano del Garda,Italy,45.4689,10.535
Buronzo,Italia,45.4808622,8.2671277
Las Labores,España,39.2744812,-3.5187184
Cuevas de San Marcos,España,37.26963,-4.414079
Torreblanca,España,40.22024,0.1955926
Beauval,Francia,50.1059946,2.3301613
Pedroso,España,42.03333,-2.716667
Seilhan,Francia,43.051,0.575018
Holguera,España,39.89969,-6.349081
Noidans-lès-Vesoul,Francia,47.6137777,6.1243781
Lusseray,Francia,46.14401265,-0.167529353859014
Grimaud,Francia,43.2737698,6.5222979
Alcudia de Veo,España,39.91713,-0.3556332
Narni,Italy,42.5167,12.5167
Auggen,Alemania,47.7864318,7.5970495
Saint-Julien-Puy-Lavèze,Francia,45.665626,2.6724466
Montberaud,Francia,43.1543,1.14334
Santa María de Cayón,España,43.31036,-3.854225
La Alberca,España,40.4889361,-6.1104867
Campagnac,Francia,44.0305,1.84449
Corronsac,Francia,43.4735378,1.4952075
Montagny,Francia,46.032283,4.2343363
Buis-les-Baronnies,Francia,44.2767853,5.2747917
La Côte-Saint-André,Francia,45.3937745,5.2604941
Grottaferrata,Italy,41.8,12.6667
Cardedeu,España,41.63816,2.354492
Montalbán de Córdoba,España,37.58292,-4.749699
Saint-Paul-en-Jarez,Francia,45.4825111,4.5741514
Saint-François-Longchamp,Francia,45.4172599,6.3620514
Cardeilhac,Francia,43.1985361,0.6834091
Seyssins,France,45.1561,5.6797
Sax,España,38.53757,-0.8180652
Méjannes-lès-Alès,Francia,44.1002048,4.153984
Gravelines,France,50.9864,2.1275
Sancoins,Francia,46.8308788,2.9201075
Padilla de Arriba,España,42.43821,-4.194777
Brasparts,Francia,48.3019638,-3.9558632
Nymburk,Czechia,50.1861,15.0417
Gagny,France,48.8833,2.5333
Enval,Francia,45.9,3.0503
Vielle-Aure,Francia,42.82998,0.3271205
les Borges Blanques,España,41.5203322,0.8684098
Jafre,España,42.07296,3.009616
Viehdorf,Austria,48.1505699,14.893147
Vezdemarbán,España,41.65422,-5.366971
L'Île-Bouchard,Francia,47.1201355,0.4241574
Haelen,Países Bajos,51.2365957,5.9541038
Saalfeld/Saale,Alemania,50.6481277,11.3616652
Weinheim,Germany,49.5561,8.6697
San Martín de la Vega,España,40.2078,-3.568544
Czestochowa,Polonia,50.8120466,19.113213
Touvre,Francia,45.6576883,0.2635473
Tortona,Italy,44.8942,8.8656
Romagnat,France,45.7294,3.1006
Itrabo,España,36.79948,-3.638711
Villepinte,France,48.955,2.541
Ronda,España,36.74196,-5.166412
Castelnau-de-Lévis,Francia,43.9382,2.08188
Bisceglie,Italy,41.2409,16.5021
El Cerro,España,40.3270387,-5.9159836
Martigues,France,43.4053,5.0475
Solothurn,Switzerland,47.2081,7.5375
Aldeanueva del Codonal,España,41.08217,-4.544615
Le Pradet,France,43.1056,6.0233
Sarreguemines,France,49.11,7.07
Villazala,España,42.36126,-5.8546
Onesti,Rumanía,46.2520269,26.770213
Atarfe,España,37.2229,-3.687416
Bondoufle,France,48.6133,2.3806
Saint-Martin-la-Plaine,Francia,45.546385,4.5926569
Saint-Cricq-Villeneuve,Francia,43.8906067,-0.3531883
Villedaigne,Francia,43.2161576,2.8609742
Olivet,France,47.8639,1.9006
Puente Genil,España,37.39051,-4.770465
Saleich,Francia,43.0257492,0.9682815
Candamo,España,43.44661,-6.058167
Magny-Cours,Francia,46.8838702,3.1480813
Châteaufort,Francia,48.73585,2.09032
Nibelle,Francia,48.022122,2.3275203
Volx,Francia,43.8782761,5.8411569
Donaueschingen,Germany,47.9531,8.5033
Saint-Jean-d'Arves,Francia,45.2061981,6.2731278
Baisieux,Francia,50.6148786,3.2410393
Castelló de la Ribera,España,39.0797407,-0.5129051
Bonzac,Francia,45.00628,-0.22336
Chamrousse,Francia,45.1171487,5.893161878703198
Parigné-l'Évêque,Francia,47.9324,0.376251
Schio,Italy,45.7111,11.3556
Mandres-les-Roses,Francia,48.7031725,2.5471633
la Fuliola,España,41.7127829,1.0186209
Castelo de Vide,Portugal,39.4759514,-7.487094803786244
Lez,Francia,42.911215299999995,0.7001009619092323
Heiteren,Francia,47.9703762,7.539625
Monesma y Cajigar,España,42.26012,0.5972991
Diano San Pietro,Italia,43.931424,8.071651
La Palme,Francia,42.9747989,2.9942438
Valdepiélagos,España,40.76059,-3.465914
Valaurie,Francia,44.4225104,4.8138874
Alano di Piave,Italia,45.907803,11.9081948
Chanac,Francia,45.2643422,1.8216343
Cousances-lès-Triconville,Francia,48.7828935,5.4391206
Gentilly,France,48.8133,2.3444
Sant Climent Sescebes,España,42.36862,2.980664
Villameriel,España,42.52761,-4.476349
Ormesson-sur-Marne,France,48.7858,2.5383
Pieve di Soligo,Italy,45.8833,12.1667
Torrubia del Castillo,España,39.65805,-2.310545
Manzanares de Rioja,España,42.39614,-2.895233
Charquemont,Francia,47.2141791,6.8237024
Berriozar,España,42.83624,-1.67493
Queuille,Francia,45.9723606,2.8482691
Altzaga,España,43.06449,-2.153833
Aldea en Cabo,España,40.18369,-4.455605
Fuentesoto,España,41.45682,-3.919893
Lautertal,Alemania,49.7123967,8.6925279
Condé-sur-Vire,Francia,49.059865099999996,-1.0250661118570192
Thuin,Belgium,50.3397,4.287
Chevennes,Francia,49.8158333,3.7333333
Sains-en-Gohelle,France,50.4447,2.6836
Arcene,Italia,45.575577,9.614054
Santibáñez el Alto,España,40.18597,-6.546609
Fuenlabrada de los Montes,España,39.13128,-4.935597
Raon-l'Étape,Francia,48.406984,6.8437227
Mendig,Germany,50.3744,7.2808
El Carpio,España,37.9388192,-4.4993246
Beaumont-en-Auge,Francia,49.2782545,0.1109445
Moulon,Francia,44.8473175,-0.2208055
Stetten,Francia,47.6251218,7.4275521
Toledo,España,39.85678,-4.024476
Sils,España,41.80917,2.743466
Calvarrasa de Abajo,España,40.94589,-5.553869
Cavernago,Italia,45.625097,9.7616399
Berriatua,España,43.31667,-2.466667
Valenzuela,España,37.77508,-4.219841
Escondeaux,Francia,43.339927,0.1314508
Barcial del Barco,España,41.9342,-5.664173
Molitg-les-Bains,Francia,42.6524451,2.3880537
Égly,France,48.5806,2.2239
Pélussin,Francia,45.4179803,4.678089
Piloña,España,43.351,-5.363
Les Andelys,France,49.2456,1.4117
Sestri Levante,Italy,44.2733,9.3932
Arnouville,Francia,48.9892126,2.4202824
Gondeville,Francia,45.6667707,-0.15597406328082597
Saint-Étienne-des-Sorts,Francia,44.1863908,4.7069105
El Oso,España,40.841547,-4.7695001
Langedijk,Netherlands,52.6936,4.7944
Pouzac,Francia,43.0848965,0.1344757
Baix Pallars,España,42.32555,1.065556
Nueva Carteya,España,37.58566,-4.467291
Barruelo del Valle,España,41.67421,-5.069644
Terrassa,España,41.56095,2.01044
Stadtlohn,Germany,51.9925,6.915
Muñosancho,España,40.92184,-5.035893
Beaufou,Francia,46.8244444,-1.5294444
Randogne,Suiza,46.311602,7.5016541
Cercs,España,42.15168,1.856175
Feissons-sur-Isère,Francia,45.57588575,6.478281670441983
Villariezo,España,42.26958,-3.733035
Alissas,Francia,44.7141578,4.6327064
Zirndorf,Germany,49.45,10.95
Besse-sur-Issole,Francia,43.3494306,6.1770266
Beausemblant,Francia,45.2170572,4.8315807
Hägendorf,Switzerland,47.3344,7.8444
Montaut-les-Créneaux,Francia,43.6947222,0.6586111
Mirabel-et-Blacons,Francia,44.7096,5.09138
Pozuelo del Páramo,España,42.17054,-5.768637
Lassy,Francia,48.9164916,-0.6899374080447332
Igualeja,España,36.63033,-5.122461
Valle de Lierp,España,42.38,0.489
Barrou,Francia,46.8659711,0.7717834
Assier,Francia,44.6753004,1.8762866
Hesel,Alemania,53.3062762,7.5918868
Saint-Denis-sur-Loire,Francia,47.62414,1.38622
Saint-Palais-de-Phiolin,Francia,45.5164626,-0.6001293
Uhldingen-Mühlhofen,Germany,47.7333,9.2458
Villalcón,España,42.29311,-4.855132
Monforte,Portugal,39.0531482,-7.4389355
Saint-Perdon,Francia,43.8675621,-0.593876
Villanueva de los Infantes,España,38.73712,-3.014678
Rivedoux-Plage,Francia,46.1568361,-1.2748439
Hollfeld,Germany,49.9369,11.2908
Jijona/Xixona,España,38.54006,-0.5077739
Oudon,Francia,47.3466877,-1.2861611
Mios,France,44.605,-0.9369
Alpignano,Italy,45.1,7.5167
Gandia,España,38.96902,-0.1851868
Olonne-sur-Mer,France,46.5361,-1.7728
Viuz-en-Sallaz,Francia,46.148621,6.4096733
Déols,France,46.83,1.7058
Castanet-Tolosan,France,43.5156,1.4981
Saint-Berthevin,France,48.0683,-0.8258
Betanzos,España,43.28106,-8.211315
Vilarmaior,España,43.34461,-8.15395
La Roquille,Francia,44.7912012,0.2322326
Wyssachen,Suiza,47.0833722,7.8241528
Cos,Francia,42.9768891,1.568609
Foradada,España,41.87683,1.014578
Manzac-sur-Vern,Francia,45.0852972,0.5871083
Rosenheim,Germany,47.8561,12.1289
Gréoux-les-Bains,Francia,43.7581306,5.8841886
Ahlen,Germany,51.7633,7.8911
Villiers-Saint-Frédéric,Francia,48.8196898,1.8914159
Villanueva de la Torre,España,40.58433,-3.302191
Badalona,España,41.45014,2.24742
Galdakao,España,43.23056,-2.845833
Toulon-sur-Allier,Francia,46.5147054,3.3614638
Tiedra,España,41.65174,-5.267083
Alarcón,España,39.54623,-2.083503
Herrera de Valdecañas,España,42.04818,-4.200034
Trith-Saint-Léger,France,50.3256,3.4858
Divion,France,50.4722,2.5014
Balschwiller,Francia,47.6696152,7.1688307
Sacecorbo,España,40.8327,-2.417238
Cortes,España,41.91969,-1.421934
Onís,España,43.33528,-4.9675
Artigues-près-Bordeaux,France,44.8606,-0.4936
Balesta,Francia,43.2004,0.56643
Hoz y Costeán,España,42.12752035,0.11874605063842822
Les Ancizes-Comps,Francia,45.9378694,2.792983946099338
gmina Bytów,Polonia,54.1584546,17.509713969141934
Best,Netherlands,51.5108,5.3922
Alairac,Francia,43.1837361,2.2416787
La Vid y Barrios,España,41.6193974,-3.4845157590726075
Gouveia,Portugal,40.5,-7.6
Castelnou,España,41.22842,-0.364945
Alfoz de Quintanadueñas,España,42.38503,-3.734942
Gevrey-Chambertin,Francia,47.2261857,4.9705666
Amusquillo,España,41.74875,-4.301386
La Celle-sous-Gouzon,Francia,46.2148057,2.2099138
San Vito di Cadore,Italia,46.458966,12.2057415
Saint-Yzan-de-Soudiac,Francia,45.1399863,-0.4107248
Saint-Pey-de-Castets,Francia,44.812698,-0.0675668
Saint-Marcel-Bel-Accueil,Francia,45.646609,5.2346731
Estos,Francia,43.2089696,-0.6110468
Cabanelles,España,42.23071,2.820443
Vadillo de la Sierra,España,40.60506,-5.122006
La Chapelle-des-Marais,Francia,47.4472597,-2.2409143
Kinrooi,Belgium,51.145,5.7403
Le Liège,Francia,47.2283352,1.1032656
Sankt Peter,Francia,48.3832725,7.4718731
Sestola,Italia,44.230455,10.771404
Bree,Belgium,51.1333,5.5833
Ille-sur-Têt,France,42.6706,2.6206
Venturada,España,40.79869,-3.622139
Yunquera de Henares,España,40.75522,-3.165951
Begíjar,España,37.98452,-3.53483
Bremgarten (AG),Suiza,47.3539569,8.3376446
Rialp,España,42.44348,1.135177
Markina-Xemein,España,43.2706,-2.497155
Saint-Bonnet-le-Froid,Francia,45.1420785,4.4353184
Manage,Belgium,50.5,4.2333
Épinay-sur-Orge,France,48.6739,2.3272
Ujué,España,42.50721,-1.499354
Gouaux-de-Larboust,Francia,42.7948627,0.4899414
Vélez-Rubio,España,37.64802,-2.074232
Le Thoronet,Francia,43.4522605,6.3023262
Douzillac,Francia,45.0846627,0.4154039
Azillanet,Francia,43.3245758,2.7377298
Saint-Jean-de-Marsacq,Francia,43.6249983,-1.2573335
Renate,Italia,45.724378,9.279944
Lübeck,Germany,53.8697,10.6864
Lavelanet-de-Comminges,Francia,43.2558346,1.1188632
Hoyorredondo,España,40.46219,-5.409976
Wolpertswende,Alemania,47.8760016,9.6359092
Silea,Italy,45.6547,12.2967
Val-de-Travers,Suiza,46.918820600000004,6.582627570788064
Cepeda la Mora,España,40.45761,-5.048178
Tuchan,Francia,42.8880138,2.7197404
Sélestat,France,48.2594,7.4542
Pozaldez,España,41.37178,-4.842025
Blanot,Francia,47.17139,4.23577
Bernis,Francia,43.7656043,4.2860742
Luzenac,Francia,42.7633768,1.7634448
Neuvillette-en-Charnie,Francia,48.0934138,-0.211896
Alcàntera de Xúquer,España,39.06793,-0.5611053
Lévignac,Francia,43.6680388,1.1951587
Begues,España,41.33101,1.921987
Saint-Siméon-de-Bressieux,Francia,45.329026,5.264369
Haulchin,Francia,50.3171118,3.4329979
Oulches,Francia,46.6135325,1.2959009
Lherm,Francia,43.4297851,1.2223771
Villalobar de Rioja,España,42.49213,-2.961956
Amusco,España,42.17311,-4.47014
Le Bas-Ségala,Francia,44.30570815,2.1357174487591477
Cistérniga,España,41.61322,-4.689145
Cantalejo,España,41.25864,-3.9281
Saint-Pey-d'Armens,Francia,44.8562529,-0.1122069
Oiartzun,España,43.29928,-1.857874
Courcelles-de-Touraine,Francia,47.4824372,0.3074338
Le Veurdre,Francia,46.7565,3.04111
La Garganta,España,40.3284225,-5.8229086
Nitry,Francia,47.6722709,3.8778883
Plettenberg,Germany,51.2128,7.8715
Gournay-sur-Marne,France,48.8597,2.5764
Eschwege,Germany,51.1881,10.0528
Masegoso,España,38.71841,-2.315899
Beneixama,España,38.69995,-0.7661394
Monzón,España,41.91031,0.1946406
Saint-Chamas,France,43.5503,5.0347
Ucel,Francia,44.6274943,4.3990868
Villamayor de los Montes,España,42.10576,-3.766267
Crissier,Switzerland,46.55,6.5833
La Codosera,España,39.2072985,-7.1736064
Villafranca de Córdoba,España,37.96193,-4.545728
Bouges-le-Château,Francia,47.0407317,1.6736851
Maillé,Francia,46.3423674,-0.7890064
Rohrwiller,Francia,48.7557,7.90439
Stalpu,Rumanía,45.0851857,26.7083861
Daimiel,España,39.07178,-3.616573
Gravere,Italia,45.125342,7.017507
Salmoral,España,40.80143,-5.220465
Feria,España,38.51197,-6.564341
Dunkerque,France,51.0383,2.3775
Beauchastel,Francia,44.8250002,4.800277
Bédarieux,France,43.6159,3.1588
Claira,Francia,42.7601553,2.9556064
Longares,España,41.40359,-1.168638
Bussière-Galant,Francia,45.6268033,1.0362738
Ferrières-en-Brie,Francia,48.8213887,2.7045126
Prades-d'Aubrac,Francia,44.5338895,2.939005
Muttersholtz,Francia,48.2693062,7.5358375
Oriolles,Francia,45.3613309,-0.1284626
Chaumont-en-Vexin,Francia,49.2625682,1.8821405
Saint-Gervais-sur-Roubion,Francia,44.5834475,4.8910652
Golpejas,España,40.99983,-5.906649
San Juan de Aznalfarache,España,37.35838,-6.035451
Friedrichstadt,Alemania,54.3760004,9.0897716
San Juan de Gredos,España,40.36386,-5.237109
Seix,Francia,42.8656826,1.2032212
Dresden,Germany,51.05,13.74
Bisaurri,España,42.4967,0.5070404
Serres-Morlaàs,Francia,43.3260695,-0.2596394
Fuenteheridos,España,37.90327,-6.660661
Mostuéjouls,Francia,44.2024869,3.1848511
Arces,Francia,45.5535505,-0.8600576
Plœmeur,Francia,47.7354591,-3.4270534
Polinyà,España,41.5575,2.156243
Santa Perpètua de Mogoda,España,41.53486,2.178988
Benquet,Francia,43.8308184,-0.5005729
Vitry-en-Charollais,Francia,46.4543352,4.0592741
Estremera,España,40.18403,-3.106115
Keçiören,Turquía,39.9776661,32.8670147
La Barre-de-Monts,Francia,46.8847222,-2.1169444
Cañada Rosal,España,37.59894,-5.210358
Cuevas del Becerro,España,36.87637,-5.045729
Saint-Genès-Champanelle,Francia,45.7193702,3.0202426
Marcigny,Francia,46.2747868,4.0398531
Trezzano sul Naviglio,Italy,45.4333,9.0667
La Villa de Don Fadrique,España,39.6180333,-3.2182294
Reichertshofen,Germany,48.6667,11.4667
Villeneuve-de-la-Raho,Francia,42.6359815,2.9182491
Poznan,Polonia,52.4006632,16.91973259178088
Gornac,Francia,44.66236,-0.18222
Château-la-Vallière,Francia,47.5468375,0.3227411
Borobia,España,41.66553,-1.897643
Husum,Germany,54.4769,9.0511
Arnedo,España,42.22784,-2.100014
Erfurt,Germany,50.9781,11.0292
Vladimirescu,Romania,46.15,21.4
Decize,France,46.8292,3.4614
Pennautier,Francia,43.244343,2.3189949
Étréchy,France,48.4931,2.1911
Móra la Nova,España,41.10094,0.6511012
Besançon,France,47.24,6.02
Benissoda,España,38.8327,-0.5308933
Arudy,Francia,43.1050159,-0.4279426
Villarluengo,España,40.64831,-0.5297248
Viana de Cega,España,41.52876,-4.752031
Cantaous,Francia,43.1022846,0.4405241
Bellignat,Francia,46.2418811,5.6293467
Galve de Sorbe,España,41.22248,-3.183245
Pourrières,France,43.5039,5.7339
Luquin,España,42.61172,-2.099288
Corsept,Francia,47.2779833,-2.0603875
Ciechanów,Poland,52.8817,20.6106
Pézilla-la-Rivière,Francia,42.6940024,2.7693489
Manciet,Francia,43.8005556,0.0416667
el Pinell de Brai,España,41.0170682,0.5151803
Blaricum,Netherlands,52.2728,5.2422
Flensburg,Germany,54.7819,9.4367
Pierrefeu-du-Var,France,43.2244,6.1453
Albaida del Aljarafe,España,37.42702,-6.165926
Villamanrique de Tajo,España,40.06812,-3.240428
Zeanuri,España,43.09966,-2.749615
Benatae,España,38.35257,-2.650866
Rabanera del Pinar,España,41.89267,-3.19425
Trignac,France,47.3181,-2.1892
Brie-Comte-Robert,France,48.6925,2.6111
Motril,España,36.74467,-3.516718
Naintré,France,46.7636,0.4864
Aguilafuente,España,41.2284,-4.111938
Tornavacas,España,40.25297,-5.69185
Sèvremoine,Francia,47.08775155,-1.0821288289702786
Ecublens (FR),Suiza,46.6107303,6.8089033
Bornel,Francia,44.6197337,0.6706425
Biure,España,42.33665,2.896511
Tías,España,28.95304,-13.65303
Bande,España,42.03019,-7.976335
La Frontera,España,40.4010784,-2.2170389
Bubenreuth,Alemania,49.6277003,11.0143385
Torre de las Arcas,España,40.84147,-0.7188649
Giverny,Francia,49.0760895,1.5271014
Hirschberg an der Bergstraße,Alemania,49.5035849,8.6505756
Valflaunès,Francia,43.8003287,3.871906
Le Bourg-d'Oisans,Francia,45.054713,6.0306625
Fortanete,España,40.50564,-0.523106
Fompedraza,España,41.53621,-4.145766
Gomezserracín,España,41.28854,-4.326694
Hinojosa de San Vicente,España,40.10402,-4.724235
Lièpvre,Francia,48.2730754,7.283351
Nizas,Francia,43.4988889,1
Poullan-sur-Mer,Francia,48.0803295,-4.4144643
Tomiño,España,41.98744,-8.745583
La Rixouse,Francia,46.4670767,5.8843299
Marín,España,42.39147,-8.699853
Tineo,España,43.33509,-6.414816
Villecomtal,Francia,44.5389653,2.5642884
Leiria,Portugal,39.7431,-8.8069
Unieux,France,45.4017,4.2614
Bruges,Belgium,51.2089,3.2242
Piégut-Pluviers,Francia,45.623611,0.690277
gmina Kluczbork,Polonia,50.977446650000005,18.2240659521597
Ramsgate,United Kingdom,51.336,1.416
Desvres,Francia,50.6678737,1.8348266
Lüneburg,Germany,53.2525,10.4144
Levroux,Francia,46.9731343,1.6392860280931463
Albalate de Cinca,España,41.72295,0.145821
Cercottes,Francia,47.985691,1.8812025
Sainte-Sigolène,France,45.2431,4.2347
Oliola,España,41.87523,1.175909
Fouqueure,Francia,45.8840344,0.076022
Petit-Mars,Francia,47.3954408,-1.4546001
Bordères-Louron,Francia,42.872032,0.3952093
Deggingen,Germany,48.5964,9.7192
Zulte,Belgium,50.9144,3.4425
Hellín,España,38.51216,-1.70331
Serres-Castet,Francia,43.3861879,-0.3541989
Miño,España,43.3475,-8.206388
Châtel-Guyon,France,45.9225,3.0642
La Sequera de Haza,España,41.5638715,-3.8165088
Pinilla de Toro,España,41.62759,-5.365041
Rouxmesnil-Bouteilles,Francia,49.9054443,1.0941481
Kassel,Germany,51.3158,9.4979
Torrevieja,España,37.97747,-0.6832271
Soustelle,Francia,44.1746,4.01152
Vic-sur-Seille,Francia,48.7813233,6.5303154
Piles,España,38.94081,-0.1345093
Talence,France,44.8,-0.584
Cavillargues,Francia,44.1147,4.52013
Saint-Jean-le-Vieux,Francia,43.165404,-1.1940594
Cessieu,Francia,45.5671,5.38238
Santiago de la Puebla,España,40.8023,-5.27934
Cobreros,España,42.07391,-6.701635
Zújar,España,37.54015,-2.842817
Llocnou de Sant Jeroni,España,38.91246,-0.2856349
Cañizal,España,41.16766,-5.368752
Landquart,Switzerland,46.9497,9.5667
Hespe,Alemania,52.3248,9.1101
Caglin,Croacia,45.3497898,17.9891946
Giaveno,Italy,45.0333,7.35
Castielfabib,España,40.131,-1.303953
Pradoluengo,España,42.3237,-3.200787
Villefranche-de-Rouergue,France,44.3525,2.0342
Leiro,España,42.36928,-8.123707
Saint-Quentin-sur-Indrois,Francia,47.2042247,1.0246068
La Gripperie-Saint-Symphorien,Francia,45.801389,-0.950278
Taulignan,Francia,44.4435969,4.9809891
Le Val-d'Hazey,Francia,49.17136910000001,1.3188976228571019
Villeneuve-Minervois,Francia,43.3166,2.4607507
Miré,Francia,47.7572442,-0.4929743
San Juan de la Rambla,España,28.39464,-16.65047
Landudal,Francia,48.0619046,-3.9786459
Vendays-Montalivet,Francia,45.3555884,-1.0593641
Vaylats,Francia,44.3373236,1.6416656
Gijón/Xixón,España,43.5449422,-5.66275
Baena,España,37.61441,-4.326089
Jaén,España,37.76574,-3.789518
Sant Pere de Riudebitlles,España,41.45347,1.701628
Plougonvelin,Francia,48.3415116,-4.7192399
Castillo de Villamalefa,España,40.13031,-0.3785351
Épinal,France,48.1744,6.4512
Gemeinde Klein-Neusiedl,Austria,48.0960336,16.592317814191713
Courtry,France,48.9175,2.6031
Cambounès,Francia,43.5861,2.43979
Asnières-sur-Seine,Francia,48.9105948,2.2890454
Valdetorres,España,38.91568,-6.068682
Payra-sur-l'Hers,Francia,43.266555,1.8553589
Malagón,España,39.17159,-3.854879
Ortaffa,Francia,42.5792626,2.926837
Combronde,Francia,45.9819,3.0889
Wiesbaden,Germany,50.0825,8.24
Los Villares,Spain,37.6833,-3.8167
Sant Feliu de Llobregat,España,41.38094,2.045171
Vila de Cruces,España,42.79403,-8.170012
Corral-Rubio,España,38.83509,-1.460988
Wuustwezel,Belgium,51.3922,4.5942
Benetússer,España,39.42465,-0.3974029
Lech,Alemania,47.7686752,10.8342813
Palacios del Pan,España,41.60201,-5.878004
Fauroux,Francia,44.2441667,1.0052778
Cabanès,Francia,43.7299065,1.942533
Llamas de la Ribera,España,42.63512,-5.825368
Saint-Jorioz,France,45.8336,6.1639
Conches-en-Ouche,France,48.9606,0.9425
La Puebla de los Infantes,España,37.7807467,-5.3893743
Salgesch,Suiza,46.3116136,7.5699409
Palau-solità i Plegamans,España,41.58862,2.179233
Cherepovets,Russia,59.1333,37.9167
Valdemoro-Sierra,España,40.10126,-1.767433
Éghezée,Belgium,50.5833,4.9167
Serris,France,48.8564,2.7861
Villemur-sur-Tarn,France,43.8656,1.505
Mauléon-Licharre,Francia,43.2233373,-0.8885873
Châteaubriant,France,47.7169,-1.3761
Gardères,Francia,43.2796772,-0.1123228
Esplugues de Llobregat,España,41.37751,2.088085
Tillé,Francia,49.4637451,2.112363
Pulianas,España,37.22264,-3.608163
Hijes,España,41.25117,-2.999697
Le Verdon-sur-Mer,Francia,45.547543,-1.0622993
Carcaboso,España,40.04923,-6.213867
Castroverde de Cerrato,España,41.75579,-4.221106
Larçay,Francia,47.3683486,0.7781008
Saint-Dizant-du-Gua,Francia,45.4335149,-0.7030016
Bézancourt,Francia,49.4432755,1.624394
Montazels,Francia,42.9449274,2.2466755
Royat,Francia,45.7643631,3.0477919
Maçanet de la Selva,España,41.77703,2.73262
Ituren,España,43.12894,-1.707117
Cabañas de Ebro,España,41.79571,-1.163833
Épagny-Metz-Tessy,Francia,45.942964200000006,6.093513616324771
Charvonnex,Francia,45.9769593,6.1567999
Feytiat,France,45.8094,1.3317
Beaune-la-Rolande,Francia,48.06949,2.42804
Horw,Switzerland,47.0164,8.3111
Zaldibar,España,43.17097,-2.54713
Oyón/Oion,España,42.506553,-2.4357886
Champs-Romain,Francia,45.5319444,0.7761111
Worms,Germany,49.6319,8.3653
Creutzwald,France,49.2053,6.6958
Groningen,Netherlands,53.2167,6.5667
gmina Miechów,Polonia,50.3587353,20.051773692796324
Le Creusot,France,46.8014,4.4411
Igornay,Francia,47.0455676,4.3779298
Torremormojón,España,41.96135,-4.7776
Aubres,Francia,44.3765178,5.1675424
Montuïri,España,39.57029,2.984617
Jaraba,España,41.19013,-1.88306
Puebla de Sanabria,España,42.05469,-6.633974
Suèvres,Francia,47.66564,1.4596
Schleswig,Germany,54.5153,9.5697
Murera/Muravera,Italia,39.420945,9.573551
Castillo de Bayuela,España,40.10114,-4.685131
Mont-de-Marrast,Francia,43.3836941,0.359586
Lesparre-Médoc,France,45.3069,-0.9378
Villers-Bretonneux,Francia,49.8686675,2.5192596
Saint-Couat-d'Aude,Francia,43.2025667,2.6302694
Rinteln,Germany,52.1906,9.0814
Vlckovce,Eslovaquia,48.3131448,17.6495373
La Caillère-Saint-Hilaire,Francia,46.6185306,-0.9108583
Busset,Francia,46.0616822,3.5122758
Torrebaja,España,40.09685,-1.257538
Tesson,Francia,45.6322858,-0.6535105
Jacarilla,España,38.06133,-0.8686115
Maside,España,42.41143,-8.025622
Saint-Médard-d'Excideuil,Francia,45.3421947,1.0707021
Trossingen,Germany,48.0756,8.6361
Zweibrücken,Germany,49.2494,7.3608
Calatayud,España,41.35432,-1.647009
Soria,España,41.7636,-2.464921
Pradelles,Francia,50.7314582,2.6039389
Molinaseca,España,42.53828,-6.519809
Hook,United Kingdom,51.2773,-0.9633
Tordera,España,41.70206,2.71902
Fuentidueña de Tajo,España,40.11819,-3.159549
Juzet-de-Luchon,Francia,42.8080543,0.6091625
Navatalgordo,España,40.41558,-4.872152
Nouhant,Francia,46.2845211,2.3897204
A Peroxa,España,42.4397824,-7.7955674
Casa de Uceda,España,40.84337,-3.370491
Fleury-la-Vallée,Francia,47.8675536,3.4471728
Villasur de Herreros,España,42.30821,-3.395027
Ribeira de Piquín,España,43.19055,-7.189803
Pina de Ebro,España,41.48727,-0.5319692
Saceda-Trasierra,España,40.15495,-2.853549
Santa Marta,España,38.61237,-6.629105
La Hoya,España,40.4066413,-5.6989123
Grenchen,Switzerland,47.1931,7.3958
la Nou de Berguedà,España,42.1663902,1.8845378
Lacaune,Francia,43.7069971,2.6908815
Dieburg,Germany,49.8985,8.8385
Maó,España,39.88961,4.264211
Villar del Salz,España,40.68233,-1.49918
Puente de Domingo Flórez,España,42.41438,-6.82406
Gaas,Francia,43.61296,-1.0352287
Villers-le-Lac,France,47.0608,6.6703
Almócita,España,37.00236,-2.790071
La Chevallerais,Francia,47.4665913,-1.6727518
les Cabanyes,España,41.3715156,1.6893989
La Fueva,España,42.37375845,0.29216995465950424
Zorita de los Canes,España,40.33144,-2.888904
San Rafael del Río,España,40.6063,0.3498944
Viols-en-Laval,Francia,43.7516,3.72534
Saint-Pierre-du-Perray,France,48.6131,2.4953
Ucero,España,41.71712,-3.051048
Argentré-du-Plessis,Francia,48.0574022,-1.1525093
Montfort-en-Chalosse,Francia,43.7107059,-0.8396241
Pontenx-les-Forges,Francia,44.240034,-1.1209313
Gines,España,37.38713,-6.078264
Dos Torres,España,38.44524,-4.894932
Marktheidenfeld,Germany,49.85,9.6
Lliçà de Vall,España,41.59081,2.242733
Sant Joan de Moró,España,40.06081,-0.1371611
Gouesnou,France,48.4536,-4.4644
Krško,Slovenia,45.959,15.4922
Bar-le-Duc,France,48.7717,5.1672
Bellcaire d'Empordà,España,42.07922,3.096079
Rijeka,Croatia,45.3272,14.4411
Borgo d'Ale,Italia,45.349435,8.053102
Castillon-en-Couserans,Francia,42.9213374,1.0308513
Le Port-Marly,France,48.8792,2.1097
Bareggio,Italy,45.4667,8.9833
Montrabé,Francia,43.6425112,1.5251637
Juslapeña,España,42.89875,-1.694989
Chambéry,France,45.57,5.9118
Genappe,Belgium,50.6103,4.4497
Boecillo,España,41.5409,-4.699863
Cinctorres,España,40.58369,-0.2165387
Almunia de San Juan,España,41.93567,0.24484
Creissels,Francia,44.0858706,3.0612932
Saint-Rabier,Francia,45.1695964,1.1528229
la Pobla de Cérvoles,España,41.3674223,0.9157069
Odivelas,Portugal,38.8,-9.1833
Robledillo de la Jara,España,40.95299,-3.525749
Espira-de-l'Agly,Francia,42.7771379,2.8325432
Almáchar,España,36.80859,-4.217409
Baugé-en-Anjou,Francia,47.5612379,-0.1036842
Croissy-sur-Seine,France,48.8778,2.1422
Lacanau,France,44.9792,-1.0794
Surba,Francia,42.858816,1.5759531
Titisee-Neustadt,Germany,47.9122,8.2147
Alhama de Granada,España,37.00252,-3.988389
Boufféré,Francia,46.9624742,-1.3391297
Appenweier,Germany,48.5397,7.98
Couiza,Francia,42.9421253,2.2544139
Villanueva del Río Segura,España,38.13569,-1.324307
Amadora,Portugal,38.75,-9.2333
Manacor,España,39.57434,3.20142
Esquivias,España,40.10413,-3.77008
Puligny-Montrachet,Francia,46.94497,4.75393
La Bâtie-Neuve,Francia,44.5649889,6.195795
Cénac-et-Saint-Julien,Francia,44.799204,1.2043106
Figueira da Foz,Portugal,40.1508,-8.8618
Vallbona de les Monges,España,41.52556,1.089478
Münsingen,Germany,48.4128,9.4953
Fretin,Francia,50.5595962,3.1350524
Mota de Altarejos,España,39.88164,-2.309652
Saint-Lary-Soulan,Francia,42.816936,0.3219538
Tuttlingen,Germany,47.985,8.8233
Saint-Jean-Poutge,Francia,43.7257737,0.3775286
Chillón,España,38.79689,-4.867012
Almussafes,España,39.29333,-0.4107316
Malla,España,41.88734,2.235119
Remondo,España,41.34121,-4.482165
Meschers-sur-Gironde,Francia,45.558105,-0.9538537
Alar del Rey,España,42.65989,-4.311825
Rüti bei Lyssach,Suiza,47.0555395,7.5779172
Cogeces de Íscar,España,41.4059,-4.544879
Covilhã,Portugal,40.2833,-7.5
Valdevimbre,España,42.42081,-5.622447
Sarrancolin,Francia,42.9666696,0.3781702
Saint-Fulgent,Francia,46.8538889,-1.1766667
Sanlúcar de Guadiana,España,37.47318,-7.467861
Laguépie,Francia,44.1452778,1.9705556
Longuyon,France,49.4469,5.6006
Gez,Francia,43.0120668,-0.1103587
Soisy-Bouy,Francia,48.5082215,3.2905258
Vendôme,France,47.7928,1.0656
Leyment,Francia,45.9230967,5.2952422
Éveux,Francia,45.8260017,4.6235361
Brue-Auriac,Francia,43.5279244,5.9450378
Nivolas-Vermelle,Francia,45.5579059,5.3046991
Huétor Tájar,España,37.19463,-4.047139
Frailes,España,37.48515,-3.838214
Vicenza,Italy,45.55,11.55
Neckertal,Suiza,47.34693125,9.1648714273202
Mane,Francia,43.0818375,0.9504994
Courcelles,Belgium,50.4667,4.3667
Ria-Sirach,Francia,42.610029350000005,2.39133067250345
Roudouallec,Francia,48.1265007,-3.7173768
Cers,Francia,43.3232846,3.3057088
Auneau-Bleury-Saint-Symphorien,Francia,48.499747850000006,1.7740897343038697
Saint-Mandé,France,48.8422,2.4186
San Carlos del Valle,España,38.84432,-3.241523
Ludwigsau,Alemania,50.9249798,9.6873779
Surat,Francia,45.9383,3.2553
Villers-la-Ville,Belgium,50.5833,4.5333
Villar del Rey,España,39.13239,-6.847796
Ponteareas,España,42.17637,-8.502382
Clarensac,Francia,43.8266904,4.2176541
Vaterstetten,Germany,48.105,11.7706
Saint-Didier,Francia,46.7086,5.51072
Herrera,España,37.36176,-4.850014
La Estrella,España,39.6898035,-5.0933003
Manteyer,Francia,44.538293,5.9646616
Fillols,Francia,42.5615432,2.4105668
Uterga,España,42.71005,-1.75952
Urrea de Jalón,España,41.6676,-1.234124
Berezniki,Russia,59.4167,56.7833
Añora,España,38.41099,-4.897461
Amalfi,Colombia,6.9092,-75.0767
Neuville-sur-Escaut,Francia,50.2993698,3.3523537
Frankenthal (Pfalz),Alemania,49.5445804,8.3540061
Sant Esteve Sesrovires,España,41.49455,1.872799
Ribera del Fresno,España,38.55236,-6.241587
Lézignan-Corbières,France,43.2006,2.7578
Pinilla de Molina,España,40.6802,-1.880445
Meuzac,Francia,45.5530659,1.4393632
Villamediana,España,42.04987,-4.361402
La Cumbre,España,39.4049805,-5.9771372
Navalperal de Pinares,España,40.59454,-4.410842
Villedieu-les-Poêles-Rouffigny,Francia,48.824754999999996,-1.2230159708654684
Cabrils,España,41.52552,2.368645
Beernem,Belgium,51.1428,3.3408
Peyriac-de-Mer,Francia,43.0878819,2.9579043
Craintilleux,Francia,45.5843,4.23378
Lora del Río,España,37.65923,-5.526284
Barchín del Hoyo,España,39.66472,-2.069453
Louverné,Francia,48.1214342,-0.7174
A Lama,España,42.3979831,-8.4412033
Bournezeau,Francia,46.6359566,-1.1706004
Condeixa-a-Nova,Portugal,40.1167,-8.5
Cee,España,42.95541,-9.18975
Lusignan,Francia,46.4351549,0.1223765
Teloché,Francia,47.887679,0.2698822
Azas,Francia,43.7253,1.67361
Châtenay,Francia,45.3211,5.22884
Sarrià de Ter,España,42.01446,2.824395
Faye-sur-Ardin,Francia,46.448714,-0.5104321
Faremoutiers,Francia,48.8004306,2.9982641
Oberaula,Alemania,50.8440713,9.4747704
Posada de Valdeón,España,43.15176,-4.919606
Salles-d'Aude,Francia,43.2390042,3.1155056
Tecuci,Romania,45.8467,27.4278
Réalmont,Francia,43.7760912,2.1889958
Bons-en-Chablais,France,46.2644,6.3703
Collesalvetti,Italia,43.588912,10.476264
Schefflenz,Alemania,49.4083504,9.280904
Pavia,Philippines,10.775,122.5417
Pinas,Francia,43.116145,0.4360192
Monieux,Francia,44.067981,5.3595093
Dol-de-Bretagne,France,48.5497,-1.7508
Montréjeau,Francia,43.0855843,0.5685313
La Roche-Vineuse,Francia,46.3472473,4.7201986
Piedralaves,España,40.31736,-4.69809
Tongeren,Belgium,50.7794,5.4631
Mirandol-Bourgnounac,Francia,44.1378833,2.1652237
Pinzolo,Italia,46.1617322,10.7650043
Los Montesinos,Spain,38.0281,-0.7419
Sariego,España,43.40997,-5.560419
El Pozuelo,España,40.6201881,-2.2772876
Teresa de Cofrentes,España,39.10665,-1.051532
Rilhac-Rancon,Francia,45.8979417,1.3159469
La Valette-du-Var,France,43.1383,5.9831
Villefranche-sur-Saône,France,45.9833,4.7167
Cornillon,Francia,44.2250699,4.4877746
Calp,España,38.6443252,0.046012
Castelculier,Francia,44.1744859,0.6911608
Cardona,España,41.91392,1.681348
Vilvoorde,Belgium,50.9281,4.4245
Mariana,España,40.16734,-2.147409
Celorico da Beira,Portugal,40.6333,-7.4
El Ballestero,España,38.8416615,-2.4547373
Felanitx,España,39.46876,3.148028
Pinos Genil,España,37.16339,-3.502635
Montamarta,España,41.64717,-5.803022
Garlin,Francia,43.5616571,-0.2703985
Küsnacht (ZH),Suiza,47.3176276,8.5830859
Biars-sur-Cère,Francia,44.9272061,1.8451434
Ahrensburg,Germany,53.6747,10.2411
la Seu d'Urgell,España,42.3575723,1.4560067
Laurenan,Francia,48.199418,-2.535191
Mouvaux,France,50.7033,3.1406
Valdelaguna,España,40.16192,-3.367249
l'Hospitalet de Llobregat,España,41.3598601,2.0997927
Bois-d'Arcy,Francia,47.5475818,3.7165618
Montebelluna,Italy,45.7753,12.0389
El Cubo de Don Sancho,España,40.8910157,-6.3057661
Alberite,España,42.40607,-2.440523
Ausejo,España,42.34546,-2.169606
Orcines,Francia,45.7853457,3.0113839
Fuentelespino de Haro,España,39.69083,-2.668525
Saint-Nom-la-Bretèche,Francia,48.8641009,2.0205241
Montbazens,Francia,44.476229,2.2295701
Benimodo,España,39.21346,-0.52738
Buthiers,Francia,48.2847908,2.4268677
Santillana del Mar,España,43.38897,-4.10918
Formiche Alto,España,40.32515,-0.8938176
Billy,Francia,49.088997750000004,-0.19853485083307099
Vauvert,France,43.6933,4.2761
Pino del Río,España,42.64439,-4.807833
Melgar de Yuso,España,42.25353,-4.254504
Nonaville,Francia,45.5317054,-0.08724359616819141
Barx,España,39.01262,-0.3010528
Bayreuth,Germany,49.9481,11.5783
Láchar,España,37.19508,-3.834064
Moritzburg,Germany,51.165,13.6794
Gladbeck,Germany,51.5713,6.9827
Les Hôpitaux-Vieux,Francia,46.7894082,6.3674648
Cabuérniga,España,43.20371,-4.30376
Cuevas de Provanco,España,41.54247,-3.961665
Carla-Bayle,Francia,43.15179,1.391458
Theix-Noyalo,Francia,47.630494549999995,-2.637546715043245
Carnoux-en-Provence,France,43.2564,5.5644
Fillinges,Francia,46.1586371,6.3424293
Saint-Jean-d'Aulps,Francia,46.2346174,6.6548702
Saint-André-de-la-Roche,France,43.74,7.2878
Valdemeca,España,40.22374,-1.741087
Magliano Romano,Italia,42.1598932,12.4368996
Trespoux-Rassiels,Francia,44.4133013,1.3701626
Noirétable,Francia,45.817108,3.7661111
Izeure,Francia,47.1703791,5.1381504
Estercuel,España,40.85538,-0.63077
Talarrubias,España,39.03328,-5.236056
Borgoricco,Italy,45.5336,11.9659
Uglas,Francia,43.1405,0.43371
Sablet,Francia,44.1923384,5.006085
Codo,España,41.33324,-0.6999325
Sainte-Menehould,Francia,49.0904192,4.8967637
Poulainville,Francia,49.9473475,2.3116021
Sciolze,Italia,45.09325,7.880426
Grañón,España,42.45045,-3.026787
Pusignan,Francia,45.7561,5.06785
Longeville-lès-Saint-Avold,Francia,49.1187388,6.6459628
Charenton-le-Pont,France,48.8265,2.405
Herrería,España,40.88811,-1.960182
Capmany,España,42.37195,2.922122
Derval,Francia,47.6673622,-1.6702011
Cerralbo,España,40.97469,-6.585999
Vallauris,France,43.5805,7.0538
Garray,España,41.8151,-2.446957
Mecerreyes,España,42.0954,-3.573741
Sanremo,Italia,43.8198253,7.7748827
La Cadière-d'Azur,Francia,43.1960022,5.7549753
Garigny,Francia,47.0865374,2.8872413
les Masies de Voltregà,España,42.0267288,2.2347147
Cléder,Francia,48.6612675,-4.1039679
Pettenasco,Italia,45.8171622,8.4087011
Bretteville-sur-Odon,Francia,49.1655808,-0.4176272
Sennecey-lès-Dijon,Francia,47.2911862,5.1020211
San Pedro de Gaíllos,España,41.22693,-3.809135
Clémont,Francia,47.5687945,2.3059764
Higuera,España,39.72699,-5.666839
Plauzat,Francia,45.6216069,3.1497092
Capo d'Orlando,Italia,38.1595733,14.7450733
Cuevas Bajas,España,37.23587,-4.489641
Issoire,France,45.5442,3.2489
Viroflay,France,48.8,2.1722
Bermillo de Sayago,España,41.36691,-6.112085
Cillaperlata,España,42.78268,-3.358483
Cazalegas,España,40.01085,-4.67746
Velden am Wörther See,Austria,46.6151882,14.0450583
Domancy,Francia,45.9126189,6.6490124
Morschwiller-le-Bas,Francia,47.7365524,7.2706716
Segovia,España,40.94943,-4.119209
Jans,Francia,47.6205039,-1.6136958
Potigny,Francia,48.9716102,-0.2475463
Villarejo del Valle,España,40.28594,-4.997665
Hontanares de Eresma,España,40.98215,-4.203881
Palairac,Francia,42.9575682,2.6613666
les Planes d'Hostoles,España,42.0565983,2.5384283
Réalville,Francia,44.1147428,1.4791189
Cármenes,España,42.95897,-5.574712
Éguilles,France,43.5686,5.3542
Sant Pere Pescador,España,42.18796,3.082352
La Vraie-Croix,Francia,47.6894253,-2.541329
Les Adrets,Francia,45.2711,5.96427
Sankt Martin bei Lofer,Austria,47.5660104,12.7064192
Meeuwen-Gruitrode,Bélgica,51.08785375,5.5962346214024645
Broc,Francia,47.5797694,0.166577
la Selva del Camp,España,41.2145609,1.1377856
Navalonguilla,España,40.27827,-5.501873
Valdáliga,España,43.32917,-4.349167
Borau,España,42.65874,-0.5881645
Miravet,España,41.04,0.5978457
Pougues-les-Eaux,Francia,47.0761404,3.100566
Sauveterre-de-Rouergue,Francia,44.2210092,2.3180939
Riom,France,45.8936,3.1125
Lupión,España,37.99656,-3.546936
Sernhac,Francia,43.9112,4.55106
Coublanc,Francia,46.1739349,4.2737099
Bassano del Grappa,Italy,45.7667,11.7342
La Celle-Saint-Avant,Francia,47.0218603,0.6039529
La Ville-ès-Nonais,Francia,48.547514,-1.952415
Madrigalejo,España,39.13836,-5.628703
Menoux,Francia,47.8086348,6.102898
Maubeuge,France,50.2775,3.9734
Mironcillo,España,40.55497,-4.825576
Catanzaro,Italy,38.91,16.5875
Villamañán,España,42.3217,-5.582248
Karben,Germany,50.2322,8.7681
Trespaderne,España,42.8019,-3.391455
Yunclillos,España,40.02176,-3.990554
Chilly-Mazarin,France,48.7025,2.3125
La Torre del Valle,España,42.0910733,-5.7229501
Villemandeur,France,47.9903,2.7094
Stoke Gifford ,Reino Unido,51.5182774,-2.5437405
Schallstadt,Germany,47.9581,7.7503
Bolaños de Campos,España,42.00658,-5.284452
Esztergom,Hungary,47.7856,18.7403
Olius,España,42.00957,1.565473
Macaye,Francia,43.3307861,-1.3224445
Ulm,Germany,48.3984,9.9916
Saint-Paul-de-Jarrat,Francia,42.9122162,1.6609269
San Martín de Valdeiglesias,España,40.36174,-4.397521
Algorfa,España,38.08587,-0.7957607
Corneilla-del-Vercol,Francia,42.6227289,2.9539904
Saint-Sulpice-les-Feuilles,Francia,46.3181739,1.3674373
Culleredo,España,43.31584,-8.384923
Santa Cruz de Mudela,España,38.64534,-3.467174
Vérargues,Francia,43.7166012,4.0999919
Port-sur-Saône,Francia,47.6876801,6.0454479
Ibros,España,38.02261,-3.502375
Brognon,Francia,47.4035243,5.1668095
Loja,España,37.16884,-4.151471
Liorac-sur-Louyre,Francia,44.89651,0.64358
Bœrsch,Francia,48.4767699,7.4410859
Monterrubio de la Serena,España,38.5892,-5.443485
Vilallonga / Villalonga,España,38.8853294,-0.2066001
Hacinas,España,41.9852,-3.28705
Saint-Nazaire-d'Aude,Francia,43.2440714,2.8933962
Saint-Germain-lès-Corbeil,France,48.6206,2.4892
Halver,Germany,51.1834,7.5027
Tynaarlo,Netherlands,53.0833,6.6
Arcones,España,41.11839,-3.724982
Herrín de Campos,España,42.12391,-4.952713
Dondas,Francia,44.2526752,0.8390502
Maure-de-Bretagne,Francia,47.895945749999996,-2.011194693475463
Licey-sur-Vingeanne,Francia,47.4812481,5.3808521
Moita,Portugal,38.65,-8.9833
Santa Bárbara de Casa,España,37.79655,-7.188633
Riells i Viabrea,España,41.72167,2.551667
Le Coudray,Francia,48.4205915,1.5011729
Alessandria,Italy,44.9133,8.62
Porcaro,Francia,47.9158599,-2.2001051
Castellar de n'Hug,España,42.28326,2.016574
Laboutarie,Francia,43.7832593,2.1198163
Kuchl,Austria,47.6278,13.1472
Buenache de Alarcón,España,39.65448,-2.160121
Arrieta,España,43.34036,-2.769799
Faches-Thumesnil,Francia,50.6026031,3.0697877
Arcizans-Dessus,Francia,42.9834794,-0.1602772
Polícar,España,37.25764,-3.232102
Chemiré-en-Charnie,Francia,48.0551157,-0.2034033
Saint-Génis-des-Fontaines,Francia,42.5428648,2.9207275
Albarracín,España,40.40652,-1.444402
Châtel-Saint-Denis,Switzerland,46.5269,6.9011
la Portella,España,41.7388399,0.6395895
Arles,France,43.6767,4.6278
Oropesa del Mar/Orpesa,España,40.09225,0.1339877
Mézy-sur-Seine,Francia,49.0004243,1.8802837
Bustillo del Páramo,España,42.44134,-5.791799
Sever do Vouga,Portugal,40.7167,-8.3667
Saint-Laurent-de-la-Prée,Francia,45.981944,-1.04
San Muñoz,España,40.78233,-6.127284
gmina Glogów Malopolski,Polonia,50.1700875,21.959451271988026
Biescas,España,42.62798,-0.3246984
Châteauneuf,Francia,47.2186075,4.6400486
Camprond,Francia,49.0887556,-1.3478177
Galindo y Perahuy,España,40.94322,-5.871698
Balboa,España,42.70652,-6.923307
Quintanas de Gormáz,España,41.5088106,-2.9761304
Montbartier,Francia,43.9136111,1.2733333
Fouilloy,Francia,49.734865,1.8252533
Queralbs,España,42.34953,2.16335
Bonastre,España,41.22233,1.440436
Minaya,España,39.27149,-2.319947
Fuentes de Carbajal,España,42.17744,-5.446469
Romiguières,Francia,43.8180054,3.2299375
Gotarrendura,España,40.82674,-4.739214
Poggibonsi,Italy,43.4667,11.15
Challignac,Francia,45.4154106,-0.0797345
Ezcaray,España,42.32673,-3.013395
Klášterec nad Ohrí,Chequia,50.3841479,13.166500647936344
San Román de Hornija,España,41.48179,-5.282981
Mongaillard,Francia,44.2076286,0.2936675
Utrera,España,37.18142,-5.781507
Lepe,España,37.25432,-7.203348
Bégaar,Francia,43.8227791,-0.8489899
Champniers,France,45.715,0.2056
Heinzenbach,Alemania,49.9740798,7.4174285
Vittoria,Italy,36.95,14.5333
Segrate,Italy,45.49,9.2953
Noyen-sur-Sarthe,Francia,47.8723118,-0.0992579
Sesma,España,42.4778,-2.083364
Ébersviller,Francia,49.2754713,6.4020591
Sanary-sur-Mer,France,43.1192,5.8022
Targu Frumos,Rumanía,47.2100643,27.0136647
Horbourg-Wihr,Francia,48.0805815,7.4002423
Quinto,España,41.42392,-0.4982721
Mozzanica,Italia,45.476076,9.689258
Saint-Genès-Champespe,Francia,45.4186646,2.7245317
Saint-Aubin-de-Branne,Francia,44.8085809,-0.1713905
Puebla de Beleña,España,40.8895,-3.2195
Arenzana de Abajo,España,42.3866,-2.7191
Chanteloup-les-Vignes,France,48.9783,2.0308
Bourg-Charente,Francia,45.6731242,-0.2210394
Penamacor,Portugal,40.1667,-7.1667
Manzanal de Arriba,España,41.99262,-6.439965
Castropodame,España,42.58004,-6.467308
Orastie,Rumanía,45.8367637,23.1958453
Cincovillas,España,41.20544,-2.818308
Hornillos del Camino,España,42.33831,-3.925357
St. Moritz,Suiza,46.4978958,9.8392428
Longeau-Percey,Francia,47.76132895,5.323704268928788
Pérignat-sur-Allier,Francia,45.7290686,3.2329941
Adanero,España,40.94591,-4.606659
Justel,España,42.14902,-6.295616
Mondonville,Francia,43.6710689,1.2879155
Pusey,Francia,47.6511,6.13129
Fix-Saint-Geneys,Francia,45.1431473,3.6673731
Betschdorf,Francia,48.8974813,7.9065678
Colmar-Berg,Luxemburgo,49.811143,6.0910235
Gobernador,España,37.47737,-3.320455
Monterroso,España,42.79319,-7.836526
Berric,Francia,47.6325983,-2.5244509
Saint-Péray,France,44.9486,4.845
Ulten - Ultimo,Italia,46.5119943,10.8994926932971
Monschau,Germany,50.55,6.25
Vila Nova de Foz Coa,Portugal,41.0818397,-7.1424138
Quijorna,España,40.42656,-4.057429
Villardebelle,Francia,43.0202133,2.391578
Villarmayor,España,41.01466,-5.971948
Bourg-en-Bresse,France,46.2056,5.2289
Iznatoraf,España,38.15744,-3.032914
Auzat-la-Combelle,Francia,45.4518919,3.3179112
Is-sur-Tille,Francia,47.5219136,5.1123622
Musso,Italia,46.1142559,9.2763733
Villaescusa,España,43.37305,-3.850833
Alcañices,España,41.69968,-6.347962
Le Touquet-Paris-Plage,Francia,50.5211202,1.5909325
Saint-Georges-de-Didonne,France,45.6053,-0.9986
Ried im Oberinntal,Austria,47.0281545,10.655578333997665
Mérignac,France,44.8386,-0.6436
Cervera de Buitrago,España,40.92196,-3.53016
Jarilla,España,40.17308,-6.002533
Ruy-Montceau,Francia,45.5884827,5.346999509653573
Pieusse,Francia,43.0797246,2.2345827
Satolas-et-Bonce,Francia,45.681867999999994,5.120308248632403
Serves-sur-Rhône,Francia,45.1334,4.81791
Saint-Maurice-d'Ibie,Francia,44.5005016,4.4837007
Beceite,España,40.83106,0.1795601
Navarrés,España,39.10121,-0.6936884
Santibáñez de Valcorba,España,41.57038,-4.447528
Válor,España,36.99589,-3.083123
Arendonk,Belgium,51.3203,5.0864
Neauphle-le-Château,Francia,48.8111045,1.9038201
Abaurrepea/Abaurrea Baja,España,42.90345,-1.207954
Torregrossa,España,41.58115,0.8252335
Horcajo de Santiago,España,39.84166,-3.001539
La Guancha,Spain,28.3738,-16.6516
Montirone,Italia,45.44638,10.228771
Tagamanent,España,41.73962,2.265759
Campillo de Aragón,España,41.12734,-1.844533
Vallecrosia,Italy,43.7931,7.6439
Verneuil-l'Étang,Francia,48.6451703,2.8358459
La Spezia,Italy,44.108,9.8289
Saint-Coulomb,Francia,48.6755188,-1.9114049
Kleinostheim,Germany,50.0,9.0667
Flamanville,Francia,49.6348243,0.839636
Pomas,Francia,43.1118966,2.2906697
Cadaqués,España,42.28896,3.278389
Vila Real,Portugal,41.2953,-7.7461
Chaptuzat,Francia,46.031764,3.1782932
Empeaux,Francia,43.5298,1.0875
Arjonilla,España,37.97355,-4.107027
Valdeavellano de Tera,España,41.94262,-2.575202
Saint-Dalmas-le-Selvage,Francia,44.284611,6.8661309
Cazalilla,España,37.9846,-3.882231
Lísek,Chequia,49.5787979,16.1875119
Puéchabon,Francia,43.7137695,3.6180691
Franconville,France,48.9889,2.2314
Los Balbases,España,42.2147696,-4.0633841
Largentière,Francia,44.5418516,4.2932518
Bonneuil-Matours,Francia,46.6815502,0.5695724
Dieuze,Francia,48.8104847,6.7179948
Les Lilas,France,48.88,2.42
Galluccio,Italia,41.352318,13.953717
Peñafiel,España,41.59464,-4.118107
Arafo,España,28.34072,-16.41512
Saint-Brieuc,France,48.5136,-2.7653
Los Hinojosos,España,39.6044249,-2.8261235
Navarredonda y San Mamés,España,40.99078,-3.726047
Saint-Jean-le-Blanc,France,47.8919,1.9172
Almensilla,España,37.30904,-6.113987
Rion-des-Landes,Francia,43.93338835,-0.9441286797651827
Ocentejo,España,40.77166,-2.39799
Basconcillos del Tozo,España,42.70267,-3.989552
Donneloye,Suiza,46.744325,6.7155281
Combrand,Francia,46.8636353,-0.6889803
Chemnitz,Germany,50.8333,12.9167
Montmerle-sur-Saône,Francia,46.0840019,4.7614129
Foussemagne,Francia,47.6351389,7.0039955
Bunschoten,Países Bajos,52.2391743,5.3734101
Ourém,Portugal,39.65,-8.5833
Saint-Androny,Francia,45.1897666,-0.6493755
Xàtiva,España,38.98887,-0.5156137
Sévérac-d'Aveyron,Francia,44.3139643,3.043442762730632
Vauchignon,Francia,46.9840416,4.653812834831998
Carrícola,España,38.84059,-0.4716639
Monistrol-sur-Loire,France,45.2925,4.1722
Padules,España,36.99884,-2.773482
Cases-de-Pène,Francia,42.7795083,2.7861584
Candasnos,España,41.50383,0.0641451
Villaralbo,España,41.4931,-5.682579
Castelnau-de-Guers,Francia,43.4336769,3.4390774
Saint-Benin-d'Azy,Francia,46.9989179,3.393152
Bruniquel,Francia,44.0551674,1.6646413
Wernau (Neckar),Alemania,48.6943334,9.4189845
Castiglione delle Stiviere,Italy,45.4,10.5
Peñarroya-Pueblonuevo,España,38.30304,-5.272851
Sarlat-la-Canéda,France,44.89,1.2167
Francilly-Selency,Francia,49.8533333,3.2244444
Wimmis,Suiza,46.6734323,7.6368102
Cadalso,España,40.23775,-6.541749
la Vall d'Alcalà,España,38.794068,-0.2527129
Almoster,España,41.19719,1.112455
Châtillon-sur-Thouet,Francia,46.6598371,-0.2362671
Esneux,Belgium,50.5333,5.5667
Villaquirán de los Infantes,España,42.22715,-4.008459
Mulhausen,Francia,48.8823608,7.5527146
Gragnague,Francia,43.6819528,1.5841501
Szentendre,Hungary,47.6733,19.0725
Tolocirio,España,41.13419,-4.650373
Venafro,Italy,41.4833,14.05
Fortaleny,España,39.18376,-0.3135945
Montjoire,Francia,43.7698,1.53391
Pitigliano,Italia,42.634827,11.673549
Caso,España,43.18333,-5.35
Velaux,France,43.5225,5.2539
Grane,Francia,44.7315,4.9265
Thumeries,Francia,50.4725,3.06638
Ortigosa del Monte,España,40.84172,-4.175569
Lerín,España,42.48297,-1.972567
Novazzano,Suiza,45.8421175,8.9802304
Ripollet,España,41.49736,2.155674
Cardeñajimeno,España,42.33102,-3.621846
Saint-Mexant,Francia,45.2850988,1.6580437
gmina Konskie,Polonia,51.170340249999995,20.378673501441625
Peyrillac-et-Millac,Francia,44.886549,1.4083846
Marquefave,Francia,43.317,1.24532
Garéoult,France,43.3283,6.0461
Tendilla,España,40.54422,-2.958995
Steinfort,Luxembourg,49.66,5.9156
Warluis,Francia,49.390181,2.1415186
els Prats de Rei,España,41.7056641,1.5412363
Estadilla,España,42.056,0.2439407
Pleure,Francia,46.916821,5.4547375
Jarnac-Champagne,Francia,45.559588,-0.400803
Oms,Rusia,56.0935263,73.5099936
Billy-sur-Oisy,Francia,47.4801389,3.4131808
Sannois,France,48.9722,2.2578
Saint-Usage,Francia,47.1097018,5.2610058
Rantzwiller,Francia,47.6501795,7.3748702
Magnac-Bourg,Francia,45.6179275,1.4308745
Journiac,Francia,44.9657531,0.8851038
Le Plan,Francia,43.1671631,1.1202138
Bréhand,Francia,48.4021752,-2.5731108
Castro Verde,Portugal,37.6976,-8.0819
Valença,Brazil,-13.37,-39.0728
San Juan de la Nava,España,40.47903,-4.682141
Arcos de las Salinas,España,39.99099,-1.042252
O Valadouro,España,43.53455905,-7.484287985193037
Marsac-en-Livradois,Francia,45.4790576,3.7267318
Lodi,United States,40.8784,-74.0814
Bidos,Francia,43.1790523,-0.6047222
Azuga,Rumanía,45.444454,25.5694638
gmina Kolbudy,Polonia,54.27490055,18.46872124349861
Willich,Germany,51.2631,6.5492
Domat/Ems,Switzerland,46.8198,9.4545
Isigny-le-Buat,Francia,48.6200556,-1.1716128
Lubersac,Francia,45.4456945,1.4040072
Tresserve,Francia,45.6731168,5.8955448
Termes-d'Armagnac,Francia,43.6719498,-0.0094508
el Palomar,España,38.8543122,-0.5030984
Querrien,Francia,47.9595345,-3.5365617
Aldeanueva de la Vera,España,40.1274,-5.701673
Giromagny,Francia,47.7418553,6.8251787
Lanvaudan,Francia,47.8994151,-3.2613397
Fougères,France,48.3525,-1.1986
Castejón de Valdejasa,España,41.98233,-0.9950376
Puceul,Francia,47.5219884,-1.6170096
Blajan,Francia,43.2597,0.642893
Port-Louis,Mauricio,-20.1624522,57.5028044
Quinto di Treviso,Italy,45.65,12.1667
gmina Brzesko,Polonia,49.98346895,20.612887061275053
Aldaia,España,39.46505,-0.4613582
Bonilla de la Sierra,España,40.53089,-5.264956
Bochum,Germany,51.4833,7.2167
Manas,Francia,44.5991,4.9833
Talamanca de Jarama,España,40.74688,-3.513244
Treia,Italy,43.3114,13.3131
Salaise-sur-Sanne,Francia,45.3441237,4.8189855
Neutraubling,Germany,48.9878,12.1964
Tossa de Mar,España,41.72018,2.932097
Ossó de Sió,España,41.75426,1.15933
Fuentidueña,España,41.44252,-3.980448
Sainte-Cécile,Francia,48.8352725,-1.1905617
Alhama de Almería,España,36.95742,-2.570075
La Celle,Francia,45.8537297,2.4765359
Valtajeros,España,41.93824,-2.221633
Opera,Italy,45.3833,9.2167
Zalamea la Real,España,37.67891,-6.660578
Coirós,España,43.25033,-8.164351
Lamotte-Beuvron,Francia,47.6052963,2.0267353
Ris-Orangis,France,48.6537,2.4161
Heiloo,Netherlands,52.6011,4.7019
Quatretondeta,España,38.72365,-0.3159135
Neuville-les-Dames,Francia,46.1624,5.00366
Diano Marina,Italy,43.9099,8.082
Les Cluses,Francia,42.4840647,2.8408824
Saint-Sernin,Francia,43.2332948,1.8034485
Vallet,France,47.1617,-1.2669
Saronno,Italy,45.6255,9.037
Peñaranda de Duero,España,41.68876,-3.480297
Dortmund,Germany,51.5139,7.4653
Samois-sur-Seine,Francia,48.4537449,2.7496865
Ordes,España,43.07674,-8.407746
Köln,Alemania,50.938361,6.959974
Penthalaz,Suiza,46.6113262,6.5252453
Cambrai,France,50.1767,3.2356
Saint-Didier-de-Formans,Francia,45.9561,4.77951
Herzebrock-Clarholz,Alemania,51.8993207,8.2249038
Toussus-le-Noble,Francia,48.7451558,2.1145179
Saint-Gervais-sur-Mare,Francia,43.6534475,3.0415138
Zorraquín,España,42.32597,-3.039334
Vars-sur-Roseix,Francia,45.2593128,1.363395
Ronco Briantino,Italia,45.6675633,9.4006983
Brommat,Francia,44.8288,2.68482
Meillonnas,Francia,46.2452372,5.3514812
Pforzheim,Germany,48.895,8.705
Caudry,France,50.125,3.4117
Garrigues-Sainte-Eulalie,Francia,43.991093,4.3040306169193805
Sarras,Francia,45.1891,4.79833
Aylesbury ,Reino Unido,51.8161412,-0.8130383
La Rochefoucauld,Francia,45.739278,0.39350271291413785
El Maderal,España,41.2819277,-5.6234159
Bagnizeau,Francia,45.8880045,-0.3133025
Lafitte-Vigordane,Francia,43.2993668,1.1631965
els Alamús,España,41.6144087,0.7397036
Meunet-Planches,Francia,46.8377029,1.9574764
Montellà i Martinet,España,42.3597,1.695621
Padrenda,España,42.13334,-8.15
Rignac,Francia,44.8052713,1.695017
La Palud-sur-Verdon,Francia,43.7796864,6.3413854
Saint-Amand-de-Coly,Francia,45.054007049999996,1.2492603219074114
Boussenac,Francia,42.9003627,1.3404767
Daya Nueva,España,38.11316,-0.7592378
Sainte-Gemmes-d'Andigné,Francia,47.667083149999996,-0.8948533686722202
Rungis,France,48.7483,2.3497
Porto Recanati,Italy,43.4299,13.6649
Peñausende,España,41.28651,-5.867489
Lappersdorf,Germany,49.0525,12.0903
Élincourt,Francia,50.0442742,3.3715823
Bursinel,Suiza,46.438423,6.3053467
Saint-Just-et-Vacquières,Francia,44.09996115,4.236110450445665
Versoix,Switzerland,46.2833,6.1667
Saint-Lary,Francia,43.7244444,0.5008333
Lit-et-Mixe,Francia,44.0322982,-1.256821
Questembert,France,47.6614,-2.4531
Le Ban-Saint-Martin,Francia,49.122521,6.1511577
Lencouacq,Francia,44.0999971,-0.4063326
Gamiz-Fika,España,43.31173,-2.810701
Baraqueville,Francia,44.2767537,2.433498
Le Mêle-sur-Sarthe,Francia,48.5113932,0.3543658
Aulnay,Francia,46.0205464,-0.347093
Fresno de Cantespino,España,41.36805,-3.498973
Cacín,España,37.05995,-3.91689
Polentinos,España,42.93913,-4.527209
Montséret,Francia,43.1038288,2.8097003
Pozohondo,España,38.72114,-1.911805
Schönenwerd,Suiza,47.3721555,8.0054417
Montrond-les-Bains,France,45.6436,4.2306
Cabezarrubias del Puerto,España,38.61497,-4.184207
Zestoa,España,43.23944,-2.258113
Vaux-les-Prés,Francia,47.235063600000004,5.88490920262777
Baix,Francia,44.7128682,4.7628065
Tardets-Sorholus,Francia,43.1162519,-0.8645311
Schweinfurt,Germany,50.05,10.2333
Tenero-Contra,Suiza,46.1841146,8.8453084
Jaurrieta,España,42.88721,-1.136416
Mansilla de las Mulas,España,42.49752,-5.416444
Terrinches,España,38.60988,-2.841618
Marseillette,Francia,43.2032679,2.5430217
Grolley,Suiza,46.8331166,7.0668617
Galinduste,España,40.66295,-5.541891
Saint-Félix-de-Lunel,Francia,44.5619,2.53835
Saint-Avit-de-Vialard,Francia,44.9426775,0.8687068
Montverdun,Francia,45.714882,4.0662679
La Póveda de Soria,España,42.0127065,-2.5035151
Saint-Augustin,Francia,48.7858921,3.0292059
Rello,España,41.33287,-2.749762
Vigneulles-lès-Hattonchâtel,Francia,48.97314145,5.733213172293615
Serranillos,España,40.33594,-4.911497
Turnu Magurele,Rumanía,43.7518306,24.8691717
Bijuesca,España,41.54044,-1.920954
Lyons-la-Forêt,Francia,49.3989972,1.4768236
Lucainena de las Torres,España,37.04179,-2.200706
Les Moutiers-en-Retz,Francia,47.0628755,-2.0009009
Rhenen,Netherlands,51.9597,5.5689
Los Ausines,España,42.22577,-3.5905168
Pozondón,España,40.56161,-1.470096
Kempten (Allgäu),Alemania,47.7267063,10.3168835
Witry-lès-Reims,Francia,49.2902975,4.115644
Le Vigen,Francia,45.7501747,1.2888396
Chalabre,Francia,42.9825951,2.0063646
Villefranche-de-Lauragais,Francia,43.4004663,1.7151072
Saint-Cyr-sur-Loire,France,47.4028,0.6781
Migné-Auxances,Francia,46.6267464,0.3113812
Gatika,España,43.36389,-2.871944
Laneuveville-devant-Bayon,Francia,48.4716047,6.2669955
Albillos,España,42.27642,-3.790607
Weiler-Simmerberg,Germany,47.5833,9.9333
Aia,España,43.23692,-2.149008
Simiane-la-Rotonde,Francia,43.9806461,5.5630672
Planes,España,38.7855,-0.344533
Haarlemmerliede c.a.,Países Bajos,52.3887744,4.6876442
Valenza,Italy,45.014,8.6458
La Fregeneda,España,40.9891609,-6.8661515
Santa Marta de Magasca,España,39.51199,-6.099321
La Trinité,France,43.7408,7.3142
Petrer,España,38.47744,-0.7742523
Sennecey-le-Grand,Francia,46.6409587,4.869504
Villandraut,Francia,44.458639,-0.3713824
Manigod,Francia,45.8609621,6.3697041
Modène,Italia,44.6458885,10.9255707
Lamasquère,Francia,43.4842,1.24318
Beja,Portugal,38.0156,-7.8653
Ginosa,Italy,40.5,16.75
Saint-Maigrin,Francia,45.4194811,-0.2796126
San Vicente de Alcántara,España,39.36045,-7.13695
Salomó,España,41.2304,1.376109
Buziet,Francia,43.1386328,-0.4754665
Cessenon-sur-Orb,Francia,43.4493882,3.0467161
Cerdà,España,38.98569,-0.5741573
Villers-lès-Nancy,France,48.6731,6.1547
Allemagne-en-Provence,Francia,43.7819561,6.006981
Saint-Jean-d'Angle,Francia,45.82,-0.945556
La Fare-en-Champsaur,Francia,44.6769565,6.0707587
Vellefaux,Francia,47.5522,6.13721
Quero,España,39.50893,-3.24591
Muros de Nalón,España,43.5437,-6.099785
Rébénacq,Francia,43.159922,-0.3964617
Unzent,Francia,43.1746971,1.5280412
Launac,Francia,43.7436094,1.1814149
La Grève-sur-Mignon,Francia,46.251389,-0.7625
Lasbordes,Francia,43.2951,2.04596
Argenton-l'Église,Francia,47.042777900000004,-0.2592614396335174
La Chapelle-Montabourlet,Francia,45.3941727,0.4637646
Plouha,Francia,48.6755038,-2.928296
Dolmayrac,Francia,44.3624487,0.5897433
Crouy,Francia,49.4025,3.36
Lorcha/Orxa,España,38.8438222,-0.31146
San Benedetto del Tronto,Italy,42.9438,13.8833
Rennaz,Suiza,46.3757048,6.9190655
Bad Krozingen,Germany,47.9181,7.7025
Westhofen,Alemania,51.4249817,7.5334109
Coulaines,France,48.0267,0.2042
Chauconin-Neufmontiers,Francia,48.9734656,2.8380097
Duffel,Belgium,51.0958,4.5061
Les Épesses,Francia,46.8834978,-0.8996996
Pobladura del Valle,España,42.10258,-5.734234
Couzon-au-Mont-d'Or,Francia,45.8435075,4.8252704
Vilamarín,España,42.46451,-7.892807
Montréal,Canada,45.5089,-73.5617
Séméac,France,43.2281,0.1067
Stiring-Wendel,France,49.2,6.9292
Valle de Tabladillo,España,41.36282,-3.839471
Cazoulès,Francia,44.882745,1.4326328
Availles-Limouzine,Francia,46.1229802,0.653006
Carate Brianza,Italy,45.6833,9.2333
La Bastide-de-Besplas,Francia,43.1661872,1.2755831
Torgau,Germany,51.5603,13.0056
Chagnon,Francia,45.5344568,4.5536664
Blavozy,Francia,45.0571147,3.9806286
Saint-Léger-de-Peyre,Francia,44.5939,3.3016
Anue,España,42.979,-1.589
Sens-sur-Seille,Francia,46.744883,5.3174962
Jaillans,Francia,45.0281475,5.1742071
Fürth,Germany,49.4783,10.9903
Berneck,Suiza,47.4249019,9.6102137
Hastingues,Francia,43.533442,-1.1497591
Bot,España,41.00909,0.3821412
Ojos Negros,España,40.73796,-1.500031
Lublin,Poland,51.2333,22.5667
Montcel,Francia,46.0156,3.0667
Biatorbágy,Hungary,47.4742,18.8236
Le Vaudreuil,Francia,49.2532604,1.1969613
Tartanedo,España,40.9934,-1.925651
Ozora,Hungría,46.7527198,18.3996749
Les Vignes,Francia,44.265023400000004,3.2523803172910544
Gorinchem,Netherlands,51.8306,4.9742
Alos-Sibas-Abense,Francia,43.115289000000004,-0.8786147856184974
Winterberg,Germany,51.195,8.53
Conques-sur-Orbiel,Francia,43.2696774,2.4016599
Guixers,España,42.13188,1.633646
Saint-Mary-le-Plain,Francia,45.1868992,3.1621874
La Chapelle-en-Vercors,Francia,44.9681874,5.4161361
Soultzbach-les-Bains,Francia,48.0356915,7.2011423
Daux,Francia,43.6942349,1.2689351
La Pedraja de Portillo,España,41.4709074,-4.6468964
Talaván,España,39.71327,-6.283558
Saint-Secondin,Francia,46.3287286,0.4931484
Gaintza,España,43.05263,-2.13237
Le Pont-de-Beauvoisin,Francia,45.530414449999995,5.6634911621297634
Velilla de Ebro,España,41.375,-0.4378378
Tarouca,Portugal,41.0167,-7.7833
Renneville,Francia,49.4043729,1.3220971
Mömlingen,Alemania,49.8583309,9.0842372
Pedrosa de Duero,España,41.71184,-3.987098
Las Pedrosas,España,42.0379245,-0.8754308
Libramont-Chevigny,Bélgica,49.94990995,5.437089151361523
Vilaür,España,42.1434,2.95544
Ansoáin,España,42.83389,-1.638431
Samaniego,España,42.56983,-2.680185
Saint-Jean-de-Soudain,Francia,45.5681,5.43211
la Pobla de Mafumet,España,41.1865974,1.2082805
Remchingen,Alemania,48.9520266,8.5706039
Rœschwoog,Francia,48.8278605,8.0363491
Longèves,Francia,46.2288848,-0.9904977
Peracense,España,40.64172,-1.469499
Caubiac,Francia,43.7142461,1.0852253
Salbris,France,47.4253,2.0519
Noé,Francia,43.3545352,1.2749497
Ogíjares,España,37.11991,-3.607937
Xove,España,43.68557,-7.512421
Le Havre,France,49.49,0.1
Moncalieri,Italy,45.0,7.6833
Waldbröl,Germany,50.8789,7.615
Mellecey,Francia,46.8078,4.73813
San Sebastián de los Reyes,España,40.54751,-3.626394
La Feuillée,Francia,48.3916742,-3.8555991
Lanvellec,Francia,48.619553,-3.537898
Arignac,Francia,42.87051,1.60011
Vers-Pont-du-Gard,Francia,43.9669381,4.5247349
Ciserano,Italy,45.5833,9.6
Laufen,Switzerland,47.4167,7.5
Boulot,Francia,47.3479,5.9604
Beaumont-la-Ronce,Francia,47.5654138,0.6607312733736952
Saint-Jal,Francia,45.3972455,1.6442382
Hallbergmoos,Germany,48.3333,11.75
Oliveira de Frades,Portugal,40.7333,-8.1667
Réans,Francia,43.8634156,0.0271907
Gorla Minore,Italia,45.6443309,8.8978959
Vidauban,France,43.4272,6.4319
Patchway,Reino Unido,51.534061,-2.5739537
Mol,Belgium,51.1842,5.1156
Laxe,España,43.21975,-9.005163
Bohonal de Ibor,España,39.78432,-5.48418
Grândola,Portugal,38.1768,-8.5689
Aramon,Francia,43.8908652,4.6810542
gmina Pniewy,Polonia,51.902751300000006,20.735588160158926
Arce/Artzi,España,42.922,-1.383022
Mancioux,Francia,43.1585,0.952959
Bernières-sur-Mer,Francia,49.3309161,-0.4234095
Argavieso,España,42.05301,-0.2790706
Paredes,España,40.0646,-2.853939
Savigny-le-Temple,France,48.5841,2.5832
Alcolea del Pinar,España,41.03577,-2.467304
Valentigney,France,47.4625,6.8322
Porec,Croacia,45.2273829,13.5956941
Beaumont-Monteux,Francia,45.0185542,4.9224726
Domodedovo,Russia,55.4333,37.75
Gavião,Brasil,-11.4714303,-39.7826316
Buros,Francia,43.352261,-0.3090529
Beauvoir-sur-Niort,Francia,46.1802152,-0.4741456
Valleiry,Francia,46.1079478,5.967928
Lioni,Italy,40.8775,15.1886
Benifallet,España,40.97462,0.5170919
Xermade,España,43.35552,-7.813554
Nevada,España,37.0,-3.016667
Urgosse,Francia,43.7377778,-0.0225
Murat-sur-Vèbre,Francia,43.6852071,2.853234
Lillo,España,39.72131,-3.305534
Campillo de Azaba,España,40.51125,-6.688763
La Rochelle,France,46.1591,-1.1517
Pierrefitte-sur-Seine,France,48.9656,2.3614
Arruazu,España,42.92223,-2.000009
Castelo Branco,Portugal,39.8228,-7.4931
Oberems,Alemania,50.240471150000005,8.40181765827572
Clariana de Cardener,España,41.93346,1.623909
Veyre-Monton,Francia,45.6732958,3.1648468
Cénac,Francia,44.7799834,-0.4617644
Bourg-la-Reine,France,48.7796,2.3151
Saint-Étienne-des-Oullières,Francia,46.0662412,4.6491308
Néris-les-Bains,Francia,46.2898064,2.6583028
La Fage-Saint-Julien,Francia,44.8022169,3.1902142
Crécy-la-Chapelle,Francia,48.8578447,2.9086092
Vila-sacra,España,42.26465,3.016558
Saint-André-de-Buèges,Francia,43.8477438,3.6625403
Nívar,España,37.25794,-3.577918
Cérilly,Francia,47.8663369,4.4955761
Giurgiu,Romania,43.9,25.9667
Gauré,Francia,43.6126242,1.6419271
Roveredo in Piano,Italy,46.0167,12.6167
Galápagos,España,40.69532,-3.338467
Sarreaus,España,42.08629,-7.603325
Saint-Germain-en-Laye,France,48.8989,2.0938
Deyme,Francia,43.4810186,1.5257421
Flaçà,España,42.05033,2.954067
Huecas,España,40.01184,-4.195808
Orelle,Francia,45.2098,6.53526
Santa Eufemia,España,38.59544,-4.902765
Busserolles,Francia,45.6757519,0.6424738
Ax-les-Thermes,Francia,42.7193597,1.8379765
Alforja,España,41.21133,0.9762403
Parempuyre,France,44.9492,-0.605
Parçay-Meslay,Francia,47.4413885,0.7456752
Campo Lugar,España,39.19566,-5.770979
Garganta la Olla,España,40.11181,-5.77565
Cimanes de la Vega,España,42.11744,-5.599564
Bréziers,Francia,44.4261129,6.199528
Dienville,Francia,48.32673715,4.512672029838713
Migueláñez,España,41.12193,-4.364726
Arad,Romania,46.1667,21.3167
Bry-sur-Marne,France,48.8411,2.5222
Clichy,France,48.9044,2.3064
Royuela de Río Franco,España,41.99681,-3.956869
Matallana de Torío,España,42.84385,-5.498035
Saignon,Francia,43.8629181,5.4289006
Moraleda de Zafayona,España,37.16977,-3.965147
Majadahonda,España,40.47283,-3.872304
Parres,España,43.37,-5.19
Trévago,España,41.87391,-2.102242
Aulnoy-lez-Valenciennes,Francia,50.330848,3.5314621
Soham ,Reino Unido,52.3333453,0.3387475
Weingarten (Pfalz),Alemania,49.269402299999996,8.30146534497481
Rosinos de la Requejada,España,42.08427,-6.53371
Renningen,Germany,48.7661,8.9347
Boussac,Francia,44.2786736,2.3663401
Fuensanta,España,39.24641,-2.065142
La Roque-Esclapon,Francia,43.7242677,6.6291088
Quintanilla del Agua y Tordueles,España,42.0411,-3.652041
Pradosegar,España,40.55083,-5.071213
Remoulins,Francia,43.9400074,4.5703458
Caixas,Francia,42.5828548,2.6829931
Komárom,Hungary,47.74,18.1217
Zucaina,España,40.13165,-0.4206683
Rognes,Francia,43.6638292,5.3469001
Capendu,Francia,43.1849,2.55965
L'Isle-Adam,Francia,49.1125294,2.2186324
Calatorao,España,41.52506,-1.344612
Chagarcía Medianero,España,40.64942,-5.382174
Orin,Francia,43.2324542,-0.6733531
Villafranca Montes de Oca,España,42.38651,-3.309347
Les Martys,Francia,43.4161,2.30603
Alcocero de Mola,España,42.47314,-3.357422
Zaratamo,España,43.21151,-2.873626
Grosmagny,Francia,47.7235585,6.8854947
Cazals,Francia,44.6431914,1.2237813
Pego,España,38.84324,-0.1175528
Lederhose,Alemania,50.7997486,11.9207256
Calenzano,Italy,43.8567,11.1636
Peschiera del Garda,Italy,45.4386,10.6886
Soultz-Haut-Rhin,France,47.8858,7.2292
Fontenay-le-Comte,France,46.4669,-0.8064
Saint-Jean-du-Cardonnay,Francia,49.5056122,1.0079846
Péroy-les-Gombries,Francia,49.1623452,2.8476123
Areso,España,43.08125,-1.950692
Rábade,España,43.12088,-7.621819
La Chapelle-la-Reine,Francia,48.3163701,2.5684968
Saint-Urcize,Francia,44.6963584,3.0029102
Murillo el Fruto,España,42.3926,-1.461822
Fougerolles-du-Plessis,Francia,48.4737398,-0.9726933
Höchst i. Odw.,Alemania,49.7891138,8.9789625
Sierra de Fuentes,España,39.43762,-6.275741
Bercimuel,España,41.39949,-3.570852
Ciorogarla,Rumanía,44.443014,25.8849934
Dossenheim,Germany,49.4492,8.6722
Navezuelas,España,39.51123,-5.438606
Valzergues,Francia,44.4984,2.22217
Torrelacárcel,España,40.61382,-1.304147
Varilhes,Francia,43.0424295,1.6272972
Maisoncelles-du-Maine,Francia,47.9644133,-0.6515387
Ringway,Reino Unido,53.350342049999995,-2.280369252664295
Perriers-sur-Andelle,Francia,49.413383,1.3713511
Almenara de Adaja,España,41.21382,-4.67709
Gourin,Francia,48.1385797,-3.6042254
Laussonne,Francia,44.9696555,4.0533578
L'Isle-d'Espagnac,Francia,45.6646231,0.2003336
Montreuil,France,48.8611,2.4436
Alcázar de San Juan,España,39.38993,-3.210137
Castilleja de Guzmán,España,37.40865,-6.057408
San Miniato,Italy,43.6833,10.85
Chapinería,España,40.37918,-4.20943
Crécy-en-Ponthieu,Francia,50.2521463,1.8840662
Benevento,Italy,41.1333,14.7833
Clapiers,France,43.6575,3.8883
Oroz-Betelu,España,42.89537,-1.304438
Hèches,Francia,43.0174862,0.3737441
Elche/Elx,España,38.2655,-0.6984587
Limpias,España,43.36872,-3.398698
Fuentelsaz de Soria,España,41.86476,-2.415506
Saint-Vincent-d'Olargues,Francia,43.5605575,2.8790142
Ambonil,Francia,44.7938,4.90829
Zeven,Germany,53.2969,9.2789
Buchelay,Francia,48.9793554,1.6716534
Muggensturm,Germany,48.8725,8.2794
Tourgéville,Francia,49.3247222,0.0655556
Maspujols,España,41.1828,1.046599
La Haba,España,38.9192095,-5.801119
La Guérinière,Francia,46.9680556,-2.2302778
Borba,Brazil,-4.3878,-59.5939
Elorrio,España,43.13039,-2.542155
Santa María de la Isla,España,42.35504,-5.929276
Cébazat,France,45.8314,3.1
Thonon-les-Bains,France,46.3627,6.475
Toga,España,40.04161,-0.3677155
Barxeta,España,39.02132,-0.4157147
Saint-Étienne-sur-Chalaronne,Francia,46.1474,4.86619
Almadén,España,38.77537,-4.839919
Saint-Étienne-lès-Remiremont,Francia,48.0203315,6.6110083
Lannemezan,France,43.1239,0.3847
Kœur-la-Petite,Francia,48.8552806,5.4939846
Estarreja,Portugal,40.75,-8.5667
Añover de Tajo,España,39.98945,-3.764771
Pol,España,43.15272,-7.330053
Magaz de Cepeda,España,42.53895,-6.073321
Veurne,Belgium,51.0722,2.6622
Goincourt,Francia,49.4252471,2.0381165
Rosis,Francia,43.6222084,3.0045185
Villeneuve-la-Comptal,Francia,43.2879965,1.9222293
Saint-Jean-du-Falga,Francia,43.0842576,1.6254308
Comares,España,36.84872,-4.247061
Navia,España,43.5401,-6.723192
Tlumacov,Chequia,49.2535051,17.4955853
Peyrins,Francia,45.0922562,5.047774
Torrella,España,38.98889,-0.5717116
Wittelsheim,France,47.8053,7.2375
Saint-Savournin,Francia,43.4063903,5.527214
Jugy,Francia,46.6054868,4.8640255
Bischheim,France,48.6139,7.7519
Piqueras,España,40.66349,-1.72177
Marseillan,France,43.3564,3.5278
Marly,France,50.3489,3.5442
Sarcey,Francia,48.05537,5.3047983
Campuzan,Francia,43.2708262,0.4284655
Friedrichshafen,Germany,47.6542,9.4792
San Cibrao das Viñas,España,42.29727,-7.873343
Ceuta,España,35.88829,-5.316195
Maello,España,40.81118,-4.5088
Hinojal,España,39.70812,-6.357864
Étainhus,Francia,49.567389,0.3101189
Dendermonde,Belgium,51.0167,4.1
Payerne,Switzerland,46.8167,6.9333
Villenave,Francia,43.9685537,-0.8083608
Olsztyn,Poland,53.78,20.4942
Carabantes,España,41.5517,-2.001163
Font-Romeu-Odeillo-Via,Francia,42.4965705,2.0416766
Viam,Francia,45.6085248,1.8830802
Burguillos,España,37.58725,-5.967274
Rivesaltes,France,42.7689,2.8739
Odintsovo,Russia,55.6733,37.2733
Monterosso al Mare,Italia,44.1465216,9.6555583
Villarrabé,España,42.42107,-4.784336
Huesca,España,42.1401,-0.408898
Orbe,Switzerland,46.7245,6.5322
Odos,Francia,43.1973846,0.0581
Le Mesnil-Esnard,France,49.4108,1.1419
Aigremont,Francia,47.71831,3.88964
Bayac,Francia,44.80365,0.72591
Cilleruelo de Abajo,España,41.88422,-3.795598
Azuaga,España,38.25962,-5.677916
Tonnay-Charente,France,45.9436,-0.8914
Garcillán,España,40.97736,-4.26627
Torres de la Alameda,España,40.40473,-3.360132
Bétête,Francia,46.3588048,2.0769659
Sant Martí de Tous,España,41.56214,1.522934
Honrubia de la Cuesta,España,41.51078,-3.704775
Les Repôts,Francia,46.6822897,5.4158958
Subirats,España,41.38472,1.798056
Torreadrada,España,41.4443,-3.839415
Swidnica,Polonia,50.8424835,16.4870549
Navaridas,España,42.54517,-2.624532
Lécousse,Francia,48.3683827,-1.2177018
Teyssode,Francia,43.6489,1.93625
Vieilles-Maisons-sur-Joudry,Francia,47.8850412,2.443012
Bessèges,Francia,44.2899584,4.1032582
Gemeinde Wiener Neudorf,Austria,48.0885947,16.318448723546133
Lachapelle-sous-Aubenas,Francia,44.5644035,4.3642788
Valmojado,España,40.20454,-4.0909
Riego de la Vega,España,42.38933,-5.982224
Plombières-lès-Dijon,Francia,47.3396438,4.9721576
Forlì,Italy,44.2225,12.0408
Cizur,España,42.78771,-1.676974
la Vall de Boí,España,42.5428062,0.867563082949543
Wieringermeer,Países Bajos,52.7216416,5.7309815
Forcall,España,40.64625,-0.2024678
Marcilly-en-Gault,Francia,47.4658872,1.874337
Allonnes,France,47.9686,0.1606
Papenburg,Germany,53.0667,7.4
Cercedilla,España,40.74145,-4.054667
Blankenheim,Germany,50.4331,6.65
Santisteban del Puerto,España,38.24746,-3.206428
Villafranca de Ebro,España,41.57368,-0.6503196
Avión,España,42.37632,-8.250866
Saint-Jean-de-Beugné,Francia,46.5225,-1.0861111
Abia de las Torres,España,42.41972,-4.421913
La Pueblanueva,España,39.9124157,-4.6772716
Algámitas,España,37.01501,-5.149775
Bourg-en-Lavaux,Suiza,46.50476465,6.7321748804798105
Cologno Monzese,Italy,45.5286,9.2783
Ceské Budejovice,Chequia,48.9747357,14.474285
San Vicente de la Cabeza,España,41.8055,-6.252309
Balaruc-le-Vieux,Francia,43.4603178,3.6844938
Sant Agustí de Lluçanès,España,42.08546,2.127825
Corbeilles,Francia,48.071556099999995,2.554950462336592
Toques,España,42.96787,-7.988449
Pont-de-Roide-Vermondans,Francia,47.3864496,6.7690738
Genneville,Francia,49.3693155,0.274869
Pully,Switzerland,46.5167,6.6667
La Puerta de Segura,España,38.349681,-2.736619
Heinsberg,Germany,51.0631,6.0964
Bréry,Francia,46.78643155,5.581889083760918
María de Huerva,España,41.53905,-0.9935882
Le Retail,Francia,46.5621271,-0.4434122
Vlissingen,Netherlands,51.45,3.5833
Le Conquet,Francia,48.3605295,-4.7709059
Arenas de Iguña,España,43.18615,-4.050034
Pedro Martínez,España,37.50168,-3.230659
L'Aiguillon,Francia,42.9163814,1.9009306
Sablons,Francia,45.025378,-0.1941431
Sergy,Francia,49.1828833,3.5710256
Dracy-le-Fort,Francia,46.7988877,4.763594
Kayl,Luxembourg,49.4864,6.0392
Saluggia,Italia,45.2354962,8.0117019
Benaoján,España,36.71874,-5.25315
Megino-Kangalassky district,Rusia,61.57570895,130.46354188845953
Les Mages,Francia,44.2280446,4.1661313
Sena de Luna,España,42.92972,-5.952073
Tornadizos de Ávila,España,40.62614,-4.615232
Pleurtuit,France,48.5797,-2.0583
Monreal,España,42.70464,-1.506409
Frýdlant nad Ostravicí,Czechia,49.5928,18.3597
Sin-le-Noble,France,50.3631,3.1131
Blaye,Francia,45.1271231,-0.6635964
Hoyos del Collado,España,40.35938,-5.201206
Saint-Junien,France,45.8872,0.9011
Meaux,France,48.9603,2.8883
Loos,France,50.6128,3.0144
Louey,Francia,43.1753807,0.0185209
Verel-Pragondran,Francia,45.62322425,5.95469739496165
Marcy-l'Étoile,Francia,45.7816572,4.7071338
Comines-Warneton,Bélgica,50.7683055,3.0001175
Lacroix-Saint-Ouen,Francia,49.356047,2.7895045
Bourg,Francia,45.0394689,-0.5596107
Bedizzole,Italia,45.5105711,10.4230323
Granollers,España,41.60821,2.287789
Saint-André-lez-Lille,Francia,50.6608,3.04468
Godella,España,39.5223,-0.4171347
Lugon-et-l'Île-du-Carnay,Francia,44.9569435,-0.3435962
gmina Chodziez,Polonia,52.98612925,16.815826122062262
Vergezac,Francia,45.032673,3.7275282
Uceda,España,40.84321,-3.461408
Saint-Cézaire-sur-Siagne,Francia,43.6505213,6.7925537
Bazoges-en-Pareds,Francia,46.6579638,-0.9167325
Magacela,España,38.89587,-5.73411
Les Brunels,Francia,43.4039151,2.0491596
Gaillac-Toulza,Francia,43.2550738,1.47117
Almendral de la Cañada,España,40.18548,-4.739292
Nogent-sur-Marne,France,48.8375,2.4833
San Daniele del Friuli,Italy,46.15,13.0167
Vergongheon,Francia,45.3704766,3.3185692
la Pobla de Montornès,España,41.1770998,1.4148506
Acqui Terme,Italy,44.6761,8.4686
Franquevielle,Francia,43.1352,0.530349
Labastide-de-Lévis,Francia,43.9271,2.0128
San Lazzaro di Savena,Italy,44.4716,11.4049
Nigrán,España,42.1452,-8.807062
Saint-Étienne-de-Fougères,Francia,44.4188132,0.5558947
Berchtesgaden,Germany,47.6314,13.0042
Mijares,España,40.29747,-4.836677
Bergeggi,Italia,44.249735,8.443353
Monthey,Switzerland,46.25,6.95
Roales de Campos,España,42.03042,-5.47572
Barberà del Vallès,España,41.51596,2.124723
Cambronne-lès-Ribécourt,Francia,49.5070153,2.8975318
Tivenys,España,40.9074,0.5112524
Massoteres,España,41.79785,1.311524
Villel,España,40.23469,-1.187274
L'Alcora,España,40.0744223,-0.2138589
Sillans-la-Cascade,Francia,43.5673969,6.1795387
Bessans,Francia,45.3206898,6.9939291
Munébrega,España,41.2516,-1.705299
Fornos de Algodres,Portugal,40.6579679,-7.488088682276229
Masone,Italia,44.5013362,8.7163481
Obersulm,Alemania,49.1424017,9.4358288
San Mamés de Campos,España,42.35485,-4.566011
Les Abrets-en-Dauphiné,Francia,45.52993845,5.603538537124297
Salvatierra de Tormes,España,40.58959,-5.596452
Nikolaevsky district,Rusia,57.64755115,39.88774848962877
Murtas,España,36.88737,-3.108971
San Giovanni in Marignano,Italy,43.9393,12.7137
Zadar,Croatia,44.1167,15.2167
Armentières-en-Brie,Francia,48.9786624,3.0216469
Coristanco,España,43.19048,-8.760949
Saelices de la Sal,España,40.90611,-2.324149
Vilassar de Dalt,España,41.51669,2.358552
Beaumont-de-Pertuis,Francia,43.7373472,5.6893982
Gaesti,Rumanía,44.7207093,25.3194711
Le Lardin-Saint-Lazare,Francia,45.1287746,1.2273602
Daoulas,Francia,48.3615618,-4.259431
Siracusa,Italy,37.0692,15.2875
Most,Czechia,50.5031,13.6367
Sainte-Eulalie-en-Born,Francia,44.2744788,-1.1837631
Saïx,Francia,43.581767,2.1832358
Montlignon,Francia,49.008969,2.2862669
Aying,Germany,47.9667,11.7833
San Pedro de la Nave-Almendra,España,41.59074,-5.921323
Gans,Francia,44.45526,-0.14666
Wanze,Belgium,50.5353,5.2133
Bossòst,España,42.78545,0.6924253
Veenendaal,Netherlands,52.025,5.555
Garges-lès-Gonesse,France,48.9728,2.4008
Cerbère,Francia,42.4412951,3.1646952
Bergheim,Germany,50.9667,6.65
Valdunciel,España,41.08523,-5.671552
Botija,España,39.34631,-6.07199
Willer-sur-Thur,Francia,47.8437216,7.0706242
Elantxobe,España,43.40342,-2.6398
Allègre-les-Fumades,Francia,44.1986016,4.2447779
Brackenheim,Germany,49.0833,9.0667
Val-du-Layon,Francia,47.3135124,-0.6568825985212126
Arakil,España,42.917,-1.861
Banyeres de Mariola,España,38.71685,-0.6558753
Lourdoueix-Saint-Pierre,Francia,46.4091474,1.822063
Tressange,Francia,49.4048112,5.9804845
Canaveilles,Francia,42.5370948,2.2498523
Torres de Albánchez,España,38.41451,-2.677051
Binéfar,España,41.85286,0.2937235
Biel,España,42.38749,-0.9365878
Montseny,España,41.76001,2.394918
San Filippo del Mela,Italia,38.169727,15.2725271
Saint-Pandelon,Francia,43.66915,-1.03911
Brunnthal,Germany,48.0167,11.6833
Puebla de la Sierra,España,41.01208,-3.444847
Navascués,España,42.71852,-1.116588
Domaso,Italia,46.1509896,9.3281424
Beurizot,Francia,47.351907,4.4941636
Combaillaux,Francia,43.6772,3.76494
Thézan-des-Corbières,Francia,43.1036,2.76936
Obdam,Países Bajos,52.6780448,4.9092183
Tournay,Francia,43.1838447,0.2441345
De Bilt,Netherlands,52.1119,5.1825
Poleñino,España,41.87049,-0.3096014
Rafelcofer,España,38.93344,-0.1661192
Bédoin,Francia,44.1240383,5.1806559
Gabian,Francia,43.5136,3.2711
Mantova,Italy,45.1564,10.7911
Taurize,Francia,43.076465,2.5050064
la Granada,España,41.3766679,1.7186912
Bessan,France,43.3614,3.4242
Jesenice,Slovenia,46.4366,14.0602
Le Sappey-en-Chartreuse,Francia,45.2599367,5.7772449
Torre del Compte,España,40.93546,0.109912
Sainte-Enimie,Francia,44.3661054,3.4104994
Alcublas,España,39.79716,-0.7021778
Santa Llogaia d'Àlguema,España,42.23439,2.951906
Benavites,España,39.74054,-0.2573594
Roperuelos del Páramo,España,42.23702,-5.78285
Rouffiac-d'Aude,Francia,43.127238,2.2982855
Cruseilles,Francia,46.0338359,6.1069469
Gabaldón,España,39.62656,-1.941805
Folschviller,Francia,49.0704468,6.6862279
Carucedo,España,42.4903,-6.762755
Soulignac,Francia,44.6980632,-0.2830432
Campello sul Clitunno,Italia,42.8228682,12.7762635
Spiez,Switzerland,46.6831,7.6664
Juxue,Francia,43.2364226,-1.0451835
Garches,France,48.8456,2.1869
Utebo,España,41.71503,-0.9947444
Lantages,Francia,48.072882,4.2110723
Miño de San Esteban,España,41.536,-3.345308
Liffré,France,48.2136,-1.5081
Granyena de les Garrigues,España,41.4337,0.6491443
Villetaneuse,Francia,48.9611722,2.3439698
Cabourg,Francia,49.2934373,-0.1155085
Hannut,Belgium,50.6725,5.078
Gigean,France,43.4997,3.7111
Huerta de Arriba,España,42.11634,-3.082139
Saint-Georges-d'Espéranche,Francia,45.5574829,5.0808076
Mulhouse,France,47.75,7.34
Vernaison,France,45.6478,4.8114
Spijkenisse,Netherlands,51.8333,4.3167
Troyes,France,48.2997,4.0792
Genlis,France,47.2408,5.2231
Vergéal,Francia,48.0362768,-1.2659042
Le Bousquet-d'Orb,Francia,43.6946849,3.164829
Vila do Bispo,Portugal,37.0825,-8.9119
Paray-le-Monial,France,46.4511,4.1194
Liausson,Francia,43.6361038,3.3698805
Ingelbach,Alemania,50.6821528,7.7083101
Frontenay-Rohan-Rohan,Francia,46.2544923,-0.5404118
Saint-Pal-de-Chalencon,Francia,45.3564714,3.9563812
Ryazan,Russia,54.6167,39.7167
Lorlanges,Francia,45.3348123,3.2668536
Guston ,Reino Unido,51.1537133,1.3209485
Ormea,Italia,44.1488707,7.9126065
Navas del Rey,España,40.38501,-4.250652
Zegama,España,42.97568,-2.290072
Rairiz de Veiga,España,42.08272,-7.833268
Torri del Benaco,Italia,45.6094493,10.6873869
Heidelberg,Germany,49.4122,8.71
Trégastel,Francia,48.8267628,-3.5112796
La Brède,Francia,44.6811652,-0.5279844
Odenas,Francia,46.0887624,4.645934
Urdorf,Switzerland,47.3867,8.4278
Villefranche-sur-Cher,Francia,47.2936361,1.7706494
Abánades,España,40.89215,-2.485381
Bad Wildungen,Germany,51.1167,9.1167
Puerto Seguro,España,40.82635,-6.761016
Casorate Primo,Italy,45.3167,9.0167
Pompei,Italy,40.75,14.5
Velliza,España,41.57899,-4.94632
Castrojeriz,España,42.28828,-4.138836
Alençon,France,48.4306,0.0931
Bièvres,Francia,49.4941667,3.7119444
Murist,Suiza,46.7906425,6.8072023
Santhià,Italy,45.3667,8.1667
Yecla,España,38.61524,-1.118017
Porrentruy,Switzerland,47.4167,7.0833
Touques,Francia,49.343477,0.1016715
Tronchón,España,40.62114,-0.3990553
Carnac,Francia,47.5836629,-3.0794428
Pomponne,Francia,48.8816121,2.6913606
Saint-Didier-la-Forêt,Francia,46.2249801,3.3438381
Clairavaux,Francia,45.7837244,2.1677936
Saint-Médard-d'Aunis,Francia,46.1590029,-0.9717582
Préfailles,Francia,47.129703,-2.2181648
Glarus Nord,Suiza,47.1066686,9.079663491860467
Almarza,España,41.94652,-2.469083
Táliga,España,38.52709,-7.014642
Montmeyan,Francia,43.6477606,6.0634551
Landiras,Francia,44.5682236,-0.4143126
Binaced,España,41.82656,0.2010187
Cuenca de Campos,España,42.05845,-5.055309
Cassino,Italy,41.4917,13.8333
Potenza,Italy,40.6333,15.8
Aizarnazabal,España,43.25541,-2.236461
Soudat,Francia,45.62358,0.56386
Saint-Martin-sous-Montaigu,Francia,46.8160316,4.7143651
Alfortville,France,48.805,2.4239
Le Cabanial,Francia,43.5156772,1.8746942
Saint-Chéron,France,48.5536,2.1247
Algar,España,36.65533,-5.657418
Comps,Francia,45.0692063,-0.5948019
Vielle-Adour,Francia,43.1451772,0.1137823
Valençay,Francia,47.161511,1.5666078
Lecco,Italy,45.85,9.4
Reguengos de Monsaraz,Portugal,38.4167,-7.5333
Bucu,Rumanía,44.6054388,27.491559
Weißenfels,Germany,51.2,11.9667
Zary,Polonia,50.0454961,18.6943479
Les Monts-Verts,Francia,44.84809425,3.2259421828671204
Vaihingen an der Enz,Germany,48.9328,8.9564
Navalacruz,España,40.44016,-4.932515
Leuze-en-Hainaut,Bélgica,50.597156049999995,3.627393779864556
Zutphen,Netherlands,52.14,6.195
Pontault-Combault,Francia,48.8009132,2.6068064
Hontecillas,España,39.69303,-2.188108
Auer - Ora,Italia,46.3465946,11.2986335
Houeillès,Francia,44.1960598,0.032974
Santibáñez del Val,España,41.97408,-3.480564
Sainte-Feyre,Francia,46.1390092,1.9150542
Urrácal,España,37.39732,-2.36507
Abla,España,37.14114,-2.780104
Legnano,Italy,45.5781,8.9183
Aste-Béon,Francia,43.0226905,-0.4126314
Castillon-Debats,Francia,43.7291504,0.2187332
Rancogne,Francia,45.7019679,0.3944683651398262
Rosières-près-Troyes,Francia,48.2572459,4.0643669
Wörnitz,Alemania,49.2552082,10.2432469
Sarrance,Francia,43.051665,-0.6014075
Labeaume,Francia,44.4486867,4.3070283
Montaut,Francia,43.1298726,-0.2000508
Strehaia,Romania,44.6222,23.1972
Castejón de Monegros,España,41.61756,-0.2399075
Saint-Cierge-la-Serre,Francia,44.7927,4.68655
San Miguel de Abona,España,28.09838,-16.61715
Meauzac,Francia,44.0890352,1.2400417
Turégano,España,41.15512,-4.007469
Monpazier,Francia,44.67998,0.89374
Steinen,Germany,47.6453,7.7403
Torla-Ordesa,España,42.6276936,-0.112138
Amurrio,España,43.05265,-3.001022
Chabeuil,France,44.8997,5.02
Losar de la Vera,España,40.12332,-5.605157
les Borges del Camp,España,41.1715857,1.0204424
Arçonnay,Francia,48.3953018,0.0853037
Sahune,Francia,44.4147018,5.2678549
Dueñas,España,41.8762,-4.545815
Mottola,Italy,40.6333,17.0333
Schwäbisch Gmünd,Germany,48.8,9.8
Vologda,Russia,59.2167,39.9
Les Moulins,Canadá,45.7469008,-73.6380494
gmina Zabno,Polonia,50.136646150000004,20.901631494792603
Aubervilliers,France,48.9131,2.3831
Blâmont,Francia,48.5912734,6.8435322
Verneuil-sur-Vienne,Francia,45.8492352,1.1273441
Toufflers,Francia,50.6619357,3.2315753
Montcuq-en-Quercy-Blanc,Francia,44.3490039,1.154004597284965
A Pontenova,España,43.3478304,-7.1922195
Tartaras,Francia,45.5539,4.66781
Cardeña,España,38.27047,-4.32373
Sagàs,España,42.05066,1.961669
Cazorla,España,37.91055,-3.002167
Perreux,Francia,47.856970000000004,3.1641014083253145
Glatigny,Francia,49.4961667,1.8952663
Parrillas,España,40.06106,-5.063858
Añana,España,42.80235,-2.982607
Sankt Pölten,Austria,48.2,15.6167
Víznar,España,37.23108,-3.553835
Tarentaise,Francia,45.3732288,4.4887322
Thoissey,Francia,46.1721833,4.8015014
Castiliscar,España,42.37669,-1.274022
Benidorm,España,38.53704,-0.1290771
Olivenza / Olivença,España,38.6196766,-7.1341344109916776
Saint-Jean-de-Minervois,Francia,43.3862566,2.8325995
Otxandio,España,43.04045,-2.654584
Castillonroy,España,41.88442,0.5141938
Wustrow,Alemania,53.2253478,12.9698436
Tardienta,España,41.97935,-0.538924
Charentay,Francia,46.0883508,4.6790123
Gondomar,España,42.11078,-8.761466
Moutiers-les-Mauxfaits,Francia,46.4926693,-1.4247824
Colombiers,Francia,45.6444077,-0.5500038
La Alberca de Záncara,España,39.5142257,-2.4924704
Soullans,Francia,46.7966667,-1.8986111
Montignoso,Italy,44.0167,10.1667
Villerest,Francia,45.9939206,4.0369461
Chasse-sur-Rhône,France,45.5806,4.8
Susurluk,Turkey,39.9136,28.1578
Seissan,Francia,43.4933333,0.5938889
Villaldemiro,España,42.2471,-3.984738
Clamecy,Francia,49.4286111,3.3619444
Somma Lombardo,Italy,45.6833,8.7
Olmeda de la Cuesta,España,40.31114,-2.478157
Ménestreau-en-Villette,Francia,47.7008085,2.0232754
Chépy,Francia,50.0672789,1.638557659106728
Los Barrios de Luna,España,42.8449493,-5.8617483
Barbezieux-Saint-Hilaire,Francia,45.481221250000004,-0.14194724370412187
Plurien,Francia,48.6262391,-2.404043
Lentilly,France,45.8186,4.6631
Burgwedel,Alemania,52.5,9.86667
Villava/Atarrabia,España,42.83096,-1.608811
Ubstadt-Weiher,Germany,49.1656,8.625
Saint-Sulpice-et-Cameyrac,Francia,44.9101967,-0.3909503
Sanilhac-Sagriès,Francia,43.95838175,4.421623782613585
Port-Jérôme-sur-Seine,Francia,49.505435,0.6005385938946798
Uzès,France,44.0125,4.4197
Palmas-d'Aveyron,Francia,44.4230722,2.861699494506671
Vélez de Benaudalla,España,36.83195,-3.516209
Las Cuerlas,España,40.9594637,-1.5495204
Kronau,Germany,49.22,8.6339
Toral de los Guzmanes,España,42.24286,-5.568284
Neuerburg,Alemania,50.0107307,6.2947705
Lújar,España,36.78755,-3.401651
Bellaguarda,España,41.33698,0.7346494
Kirchberg (SG),Suiza,47.4095086,9.026700891313265
San Gregorio di Catania,Italy,37.5667,15.1167
Seilh,Francia,43.694573,1.3534881
Kerekharaszt,Hungría,47.6617845,19.6240528
Ascain,Francia,43.3449393,-1.620839
Greifswald,Germany,54.0833,13.3833
